[
	{
		"name": "Cargadores Estacionamientos Aeropuerto Pudahuel - 1",
		"region": "Metropolitana",
		"municipality": "Pudahuel",
		"address": "Jean Mermoz 2101",
		"latitude": "-3.339.934",
		"longitude": "-7.079.489",
		"power_station": "22",
		"connector": "Conector Tipo 2",
		"curret": "AC",
		"power_charger": "22"
	},
	{
		"name": "Cargadores Estacionamientos Aeropuerto Pudahuel - 2",
		"region": "Metropolitana",
		"municipality": "Pudahuel",
		"address": "Jean Mermoz 2101",
		"latitude": "-3.339.934",
		"longitude": "-7.079.489",
		"power_station": "22",
		"connector": "Conector Tipo 2",
		"curret": "AC",
		"power_charger": "22"
	},
	{
		"name": "Cargadores Estacionamientos Aeropuerto Pudahuel - 3",
		"region": "Metropolitana",
		"municipality": "Pudahuel",
		"address": "Jean Mermoz 2101",
		"latitude": "-3.339.934",
		"longitude": "-7.079.489",
		"power_station": "22",
		"connector": "Conector Tipo 2",
		"curret": "AC",
		"power_charger": "22"
	},
	{
		"name": "Cargadores Estacionamientos Aeropuerto Pudahuel - 4",
		"region": "Metropolitana",
		"municipality": "Pudahuel",
		"address": "Jean Mermoz 2101",
		"latitude": "-3.339.934",
		"longitude": "-7.079.489",
		"power_station": "22",
		"connector": "Conector Tipo 2",
		"curret": "AC",
		"power_charger": "22"
	},
	{
		"name": "Cargadores Estacionamientos Aeropuerto Pudahuel - 5",
		"region": "Metropolitana",
		"municipality": "Pudahuel",
		"address": "Jean Mermoz 2101",
		"latitude": "-3.339.934",
		"longitude": "-7.079.489",
		"power_station": "22",
		"connector": "Conector Tipo 2",
		"curret": "AC",
		"power_charger": "22"
	},
	{
		"name": "Cargadores Estacionamientos Aeropuerto Pudahuel - 6",
		"region": "Metropolitana",
		"municipality": "Pudahuel",
		"address": "Jean Mermoz 2101",
		"latitude": "-3.339.934",
		"longitude": "-7.079.489",
		"power_station": "22",
		"connector": "Conector Tipo 2",
		"curret": "AC",
		"power_charger": "22"
	},
	{
		"name": "Enel X - Mc Donald Iquique - 1",
		"region": "Tarapacá",
		"municipality": "Iquique",
		"address": "Heroes de la Cocepcion 2494",
		"latitude": "-2.023.345",
		"longitude": "-7.014.197",
		"power_station": "22",
		"connector": "Conector Tipo 2",
		"curret": "AC",
		"power_charger": "22"
	},
	{
		"name": "Enel X Mc Donald Pajaritos - 1",
		"region": "Metropolitana",
		"municipality": "Maipú",
		"address": "Pajaritos 2872",
		"latitude": "-3.350.085",
		"longitude": "-707.576",
		"power_station": "44",
		"connector": "Conector Tipo 2",
		"curret": "AC",
		"power_charger": "22"
	},
	{
		"name": "Enel X Mc Donald Pajaritos - 1",
		"region": "Metropolitana",
		"municipality": "Maipú",
		"address": "Pajaritos 2872",
		"latitude": "-3.350.085",
		"longitude": "-707.576",
		"power_station": "44",
		"connector": "Conector Tipo 2",
		"curret": "AC",
		"power_charger": "22"
	},
	{
		"name": "Mc Donalds Independencia - 1",
		"region": "Metropolitana",
		"municipality": "Independencia",
		"address": "avenida independencia 397",
		"latitude": "-3.342.653",
		"longitude": "-706.542",
		"power_station": "7",
		"connector": "4",
		"curret": "Conector Tipo 2",
		"power_charger": "AC"
	},
	{
		"name": "Mc Donalds Independencia - 2",
		"region": "Metropolitana",
		"municipality": "Independencia",
		"address": "avenida independencia 397",
		"latitude": "-3.342.653",
		"longitude": "-706.542",
		"power_station": "7",
		"connector": "4",
		"curret": "Conector Tipo 2",
		"power_charger": "AC"
	},
	{
		"name": "Mc Donalds Kennedy - 1",
		"region": "Metropolitana",
		"municipality": "Las Condes",
		"address": "Av. Presidente Kennedy Lateral 5055",
		"latitude": "-3.340.249",
		"longitude": "-7.058.085",
		"power_station": "14",
		"connector": "Conector Tipo 2",
		"curret": "AC",
		"power_charger": "7"
	},
	{
		"name": "Mc Donalds Kennedy - 1",
		"region": "Metropolitana",
		"municipality": "Las Condes",
		"address": "Av. Presidente Kennedy Lateral 5055",
		"latitude": "-3.340.249",
		"longitude": "-7.058.085",
		"power_station": "14",
		"connector": "Conector Tipo 2",
		"curret": "AC",
		"power_charger": "7"
	},
	{
		"name": "Mc Donalds Vicuña Mackenna - 1",
		"region": "Metropolitana",
		"municipality": "La Florida",
		"address": "Av. vicuña mackenna 8153",
		"latitude": "-3.352.875",
		"longitude": "-7.059.615",
		"power_station": "7",
		"connector": "4",
		"curret": "Conector Tipo 2",
		"power_charger": "AC"
	},
	{
		"name": "Mc Donalds Vicuña Mackenna - 2",
		"region": "Metropolitana",
		"municipality": "La Florida",
		"address": "Av. vicuña mackenna 8153",
		"latitude": "-3.352.875",
		"longitude": "-7.059.615",
		"power_station": "7",
		"connector": "4",
		"curret": "Conector Tipo 2",
		"power_charger": "AC"
	},
	{
		"name": "Automóvil Club Chile - 1",
		"region": "Metropolitana",
		"municipality": "Providencia",
		"address": "Andr¿s Bello 1863",
		"latitude": "-3.342.294",
		"longitude": "-7.061.701",
		"power_station": "14",
		"connector": "Conector Tipo 1",
		"curret": "AC",
		"power_charger": "7"
	},
	{
		"name": "Automóvil Club Chile - 1",
		"region": "Metropolitana",
		"municipality": "Providencia",
		"address": "Andr¿s Bello 1863",
		"latitude": "-3.342.294",
		"longitude": "-7.061.701",
		"power_station": "14",
		"connector": "Conector Tipo 2",
		"curret": "AC",
		"power_charger": "7"
	},
	{
		"name": "Inst. Cargador Globalvía Peaje Lampa Poniente - 1",
		"region": "Metropolitana",
		"municipality": "Lampa",
		"address": "Ruta 5 Norte km.26 Poniente 000",
		"latitude": "-3.323.692",
		"longitude": "-7.075.872",
		"power_station": "55",
		"connector": "Conector Tipo 2",
		"curret": "AC",
		"power_charger": "43"
	},
	{
		"name": "Inst. Cargador Globalvía Peaje Lampa Poniente - 1",
		"region": "Metropolitana",
		"municipality": "Lampa",
		"address": "Ruta 5 Norte km.26 Poniente 000",
		"latitude": "-3.323.692",
		"longitude": "-7.075.872",
		"power_station": "55",
		"connector": "CHAdeMO",
		"curret": "DC",
		"power_charger": "50"
	},
	{
		"name": "Inst. Cargador Globalvía Peaje Lampa Poniente - 1",
		"region": "Metropolitana",
		"municipality": "Lampa",
		"address": "Ruta 5 Norte km.26 Poniente 000",
		"latitude": "-3.323.692",
		"longitude": "-7.075.872",
		"power_station": "55",
		"connector": "Combinado Tipo 2",
		"curret": "DC",
		"power_charger": "50"
	},
	{
		"name": "Bodegas San Francisco - 1",
		"region": "Metropolitana",
		"municipality": "Pudahuel",
		"address": "Puerto Madero 9710",
		"latitude": "-3.345.277",
		"longitude": "-7.078.616",
		"power_station": "44",
		"connector": "Conector Tipo 2",
		"curret": "AC",
		"power_charger": "22"
	},
	{
		"name": "Bodegas San Francisco - 1",
		"region": "Metropolitana",
		"municipality": "Pudahuel",
		"address": "Puerto Madero 9710",
		"latitude": "-3.345.277",
		"longitude": "-7.078.616",
		"power_station": "44",
		"connector": "Conector Tipo 2",
		"curret": "AC",
		"power_charger": "22"
	},
	{
		"name": "Bodegas San Francisco",
		"region": "Metropolitana",
		"municipality": "Pudahule",
		"address": "Camino La Farfana 390",
		"latitude": "-3.345.543",
		"longitude": "-7.080.337",
		"power_station": "22",
		"connector": "Conector Tipo 2",
		"curret": "AC",
		"power_charger": "22"
	},
	{
		"name": "BSF - 1",
		"region": "Metropolitana",
		"municipality": "Pudahuel",
		"address": "Americo Vespucio 400",
		"latitude": "-3.345.607",
		"longitude": "-7.076.757",
		"power_station": "44",
		"connector": "Conector Tipo 2",
		"curret": "AC",
		"power_charger": "22"
	},
	{
		"name": "BSF - 1",
		"region": "Metropolitana",
		"municipality": "Pudahuel",
		"address": "Americo Vespucio 400",
		"latitude": "-3.345.607",
		"longitude": "-7.076.757",
		"power_station": "44",
		"connector": "Conector Tipo 2",
		"curret": "AC",
		"power_charger": "22"
	},
	{
		"name": "Dreams Punta Arenas - 1",
		"region": "Magallanes y de la Antártica Chilena",
		"municipality": "Punta Arenas",
		"address": "Libertador Bernardo Ohiggins 1235",
		"latitude": "-5.316.611",
		"longitude": "-7.090.611",
		"power_station": "7",
		"connector": "4",
		"curret": "Conector Tipo 1",
		"power_charger": "AC"
	},
	{
		"name": "Dreams Punta Arenas - 2",
		"region": "Magallanes y de la Antártica Chilena",
		"municipality": "Punta Arenas",
		"address": "Libertador Bernardo Ohiggins 1235",
		"latitude": "-5.316.611",
		"longitude": "-7.090.611",
		"power_station": "7",
		"connector": "4",
		"curret": "Conector Tipo 1",
		"power_charger": "AC"
	},
	{
		"name": "Casino Enjoy Los Andes - 1",
		"region": "Valparaíso",
		"municipality": "Los Andes",
		"address": "Carretera san Martin 57",
		"latitude": "-3.292.659",
		"longitude": "-7.068.015",
		"power_station": "44",
		"connector": "Conector Tipo 2",
		"curret": "AC",
		"power_charger": "22"
	},
	{
		"name": "Casino Enjoy Los Andes - 1",
		"region": "Valparaíso",
		"municipality": "Los Andes",
		"address": "Carretera san Martin 57",
		"latitude": "-3.292.659",
		"longitude": "-7.068.015",
		"power_station": "44",
		"connector": "Conector Tipo 2",
		"curret": "AC",
		"power_charger": "22"
	},
	{
		"name": "Tanica Poniente - 1",
		"region": "Metropolitana",
		"municipality": "Vitacura",
		"address": "Santa Maria 5870",
		"latitude": "-3.338.042",
		"longitude": "-705.857",
		"power_station": "14",
		"connector": "Conector Tipo 2",
		"curret": "AC",
		"power_charger": "7"
	},
	{
		"name": "Tanica Poniente - 1",
		"region": "Metropolitana",
		"municipality": "Vitacura",
		"address": "Santa Maria 5870",
		"latitude": "-3.338.042",
		"longitude": "-705.857",
		"power_station": "14",
		"connector": "Conector Tipo 2",
		"curret": "AC",
		"power_charger": "7"
	},
	{
		"name": "Cargador Electrico Jumbo-Easy Vina del Mar - 1",
		"region": "Valparaíso",
		"municipality": "Vina del Mar",
		"address": "Uno Norte 2887",
		"latitude": "-3.303.596",
		"longitude": "-7.152.344",
		"power_station": "7",
		"connector": "4",
		"curret": "Conector Tipo 2",
		"power_charger": "AC"
	},
	{
		"name": "CGE Concepción 1",
		"region": "Biobío",
		"municipality": "Concepción",
		"address": "Barros Arana #64",
		"latitude": "-3.682.982",
		"longitude": "-7.305.819",
		"power_station": "7",
		"connector": "Conector Tipo 1",
		"curret": "AC",
		"power_charger": "7"
	},
	{
		"name": "CGE Concepción 2",
		"region": "Biobío",
		"municipality": "Concepción",
		"address": "Barros Arana #64",
		"latitude": "-3.682.982",
		"longitude": "-7.305.819",
		"power_station": "7",
		"connector": "Conector Tipo 1",
		"curret": "AC",
		"power_charger": "7"
	},
	{
		"name": "Electrolinera Arica - 1",
		"region": "Arica y Parinacota",
		"municipality": "Arica",
		"address": "Santa Maria 2724",
		"latitude": "-1.846.279",
		"longitude": "-7.029.762",
		"power_station": "44",
		"connector": "Conector Tipo 2",
		"curret": "AC",
		"power_charger": "22"
	},
	{
		"name": "Electrolinera Arica - 1",
		"region": "Arica y Parinacota",
		"municipality": "Arica",
		"address": "Santa Maria 2724",
		"latitude": "-1.846.279",
		"longitude": "-7.029.762",
		"power_station": "44",
		"connector": "Conector Tipo 2",
		"curret": "AC",
		"power_charger": "22"
	},
	{
		"name": "Mall ZOFRI - 1",
		"region": "Tarapacá",
		"municipality": "Iquique",
		"address": "salitrera victoria s/n",
		"latitude": "-2.020.505",
		"longitude": "-7.013.945",
		"power_station": "44",
		"connector": "Conector Tipo 2",
		"curret": "AC",
		"power_charger": "22"
	},
	{
		"name": "Mall ZOFRI - 1",
		"region": "Tarapacá",
		"municipality": "Iquique",
		"address": "salitrera victoria s/n",
		"latitude": "-2.020.505",
		"longitude": "-7.013.945",
		"power_station": "44",
		"connector": "Conector Tipo 2",
		"curret": "AC",
		"power_charger": "22"
	},
	{
		"name": "Oficina CGE",
		"region": " Copiapo - 1",
		"municipality": "Atacama",
		"address": "Copiapó",
		"latitude": "avenida circunvalaci¿n 51",
		"longitude": "-2.736.084",
		"power_station": "-703.386",
		"connector": "44",
		"curret": "Conector Tipo 2",
		"power_charger": "AC"
	},
	{
		"name": "Oficina CGE",
		"region": " Copiapo - 1",
		"municipality": "Atacama",
		"address": "Copiapó",
		"latitude": "avenida circunvalaci¿n 51",
		"longitude": "-2.736.084",
		"power_station": "-703.386",
		"connector": "44",
		"curret": "Conector Tipo 2",
		"power_charger": "AC"
	},
	{
		"name": "Plaza Vicuña Mackena 1",
		"region": "Coquimbo",
		"municipality": "Coquimbo",
		"address": "Plaza Vicuña Mackenna",
		"latitude": " Barrio Ingles.",
		"longitude": "-2.994.943",
		"power_station": "-7.133.725",
		"connector": "7",
		"curret": "Conector Tipo 1",
		"power_charger": "AC"
	},
	{
		"name": "Plaza Vicuña Mackena 2",
		"region": "Coquimbo",
		"municipality": "Coquimbo",
		"address": "Plaza Vicuña Mackenna",
		"latitude": " Barrio Ingles.",
		"longitude": "-2.994.943",
		"power_station": "-7.133.725",
		"connector": "7",
		"curret": "Conector Tipo 1",
		"power_charger": "AC"
	},
	{
		"name": "Mall Los trapenses - 1",
		"region": "Metropolitana",
		"municipality": "Lo Barnechea",
		"address": "José Alcalde delano 10492",
		"latitude": "-3.335.645",
		"longitude": "-7.053.946",
		"power_station": "44",
		"connector": "Conector Tipo 2",
		"curret": "AC",
		"power_charger": "22"
	},
	{
		"name": "Mall Los trapenses - 1",
		"region": "Metropolitana",
		"municipality": "Lo Barnechea",
		"address": "José Alcalde delano 10492",
		"latitude": "-3.335.645",
		"longitude": "-7.053.946",
		"power_station": "44",
		"connector": "Conector Tipo 2",
		"curret": "AC",
		"power_charger": "22"
	},
	{
		"name": "CCTA Chilquinta Quilpué - 1",
		"region": "Valparaíso",
		"municipality": "ex-Quilpue",
		"address": "ALTO EL YUGO",
		"latitude": " LO OROZCO S/N",
		"longitude": "-330.878",
		"power_station": "-7.140.353",
		"connector": "22",
		"curret": "Conector Tipo 2",
		"power_charger": "AC"
	},
	{
		"name": "Edificio Chilquinta Barón - 1",
		"region": "Valparaíso",
		"municipality": "Valparaíso",
		"address": "AV. ARGENTINA 1",
		"latitude": "-3.304.257",
		"longitude": "-7.160.482",
		"power_station": "22",
		"connector": "Conector Tipo 2",
		"curret": "AC",
		"power_charger": "44"
	},
	{
		"name": "Edificio Chilquinta Barón - 2",
		"region": "Valparaíso",
		"municipality": "Valparaíso",
		"address": "AV. ARGENTINA 1",
		"latitude": "-3.304.257",
		"longitude": "-7.160.482",
		"power_station": "22",
		"connector": "Conector Tipo 2",
		"curret": "AC",
		"power_charger": "44"
	},
	{
		"name": "Edificio Chilquinta Curauma - 1",
		"region": "Valparaíso",
		"municipality": "Valparaíso",
		"address": "Cerro El Plomo 3819",
		"latitude": "-3.313.118",
		"longitude": "-7.156.017",
		"power_station": "22",
		"connector": "Conector Tipo 2",
		"curret": "AC",
		"power_charger": "22"
	},
	{
		"name": "Edificio Chilquinta Curauma - 1",
		"region": "Valparaíso",
		"municipality": "Valparaíso",
		"address": "Cerro El Plomo 3819",
		"latitude": "-3.313.118",
		"longitude": "-7.156.017",
		"power_station": "22",
		"connector": "Conector Tipo 2",
		"curret": "AC",
		"power_charger": "22"
	},
	{
		"name": "Edificio Chilquinta Curauma - 2",
		"region": "Valparaíso",
		"municipality": "Valparaíso",
		"address": "Cerro El Plomo 3819",
		"latitude": "-3.313.118",
		"longitude": "-7.156.017",
		"power_station": "22",
		"connector": "Conector Tipo 2",
		"curret": "AC",
		"power_charger": "22"
	},
	{
		"name": "Edificio Chilquinta Curauma - 2",
		"region": "Valparaíso",
		"municipality": "Valparaíso",
		"address": "Cerro El Plomo 3819",
		"latitude": "-3.313.118",
		"longitude": "-7.156.017",
		"power_station": "22",
		"connector": "Conector Tipo 2",
		"curret": "AC",
		"power_charger": "22"
	},
	{
		"name": "Oficina Chilquinta Los Andes - 1",
		"region": "Valparaíso",
		"municipality": "Los Andes",
		"address": "SANTA ROSA 457",
		"latitude": "-3.283.459",
		"longitude": "-7.059.939",
		"power_station": "22",
		"connector": "Conector Tipo 2",
		"curret": "AC",
		"power_charger": "22"
	},
	{
		"name": "Oficina Chilquinta Quillota - 1",
		"region": "Valparaíso",
		"municipality": "Quillota",
		"address": "CHACABUCO 344",
		"latitude": "-3.287.815",
		"longitude": "-7.124.723",
		"power_station": "22",
		"connector": "Conector Tipo 1",
		"curret": "AC",
		"power_charger": "22"
	},
	{
		"name": "Oficina Chilquinta Quillota - 1",
		"region": "Valparaíso",
		"municipality": "Quillota",
		"address": "CHACABUCO 344",
		"latitude": "-3.287.815",
		"longitude": "-7.124.723",
		"power_station": "22",
		"connector": "Conector Tipo 1",
		"curret": "AC",
		"power_charger": "22"
	},
	{
		"name": "Oficina Chilquinta Quillota - 2",
		"region": "Valparaíso",
		"municipality": "Quillota",
		"address": "CHACABUCO 344",
		"latitude": "-3.287.815",
		"longitude": "-7.124.723",
		"power_station": "22",
		"connector": "Conector Tipo 1",
		"curret": "AC",
		"power_charger": "22"
	},
	{
		"name": "Oficina Chilquinta Quillota - 2",
		"region": "Valparaíso",
		"municipality": "Quillota",
		"address": "CHACABUCO 344",
		"latitude": "-3.287.815",
		"longitude": "-7.124.723",
		"power_station": "22",
		"connector": "Conector Tipo 1",
		"curret": "AC",
		"power_charger": "22"
	},
	{
		"name": "Oficina Chilquinta Quilpué - 1",
		"region": "Valparaíso",
		"municipality": "ex-Quilpue",
		"address": "Zenteno 721",
		"latitude": "-330.454",
		"longitude": "-7.143.807",
		"power_station": "22",
		"connector": "Conector Tipo 2",
		"curret": "AC",
		"power_charger": "22"
	},
	{
		"name": "Oficina Chilquinta San Antonio - 1",
		"region": "Valparaíso",
		"municipality": "San Antonio",
		"address": "El Molo 2",
		"latitude": "-3.359.578",
		"longitude": "-7.161.284",
		"power_station": "22",
		"connector": "Conector Tipo 2",
		"curret": "AC",
		"power_charger": "22"
	},
	{
		"name": "Shell Placilla",
		"region": "Valparaíso",
		"municipality": "Valparaíso",
		"address": "Ruta 68 km 98. Lado Sur",
		"latitude": "-3.312.139",
		"longitude": "-7.156.205",
		"power_station": "50",
		"connector": "Conector Tipo 2",
		"curret": "AC",
		"power_charger": "43"
	},
	{
		"name": "Shell Placilla",
		"region": "Valparaíso",
		"municipality": "Valparaíso",
		"address": "Ruta 68 km 98. Lado Sur",
		"latitude": "-3.312.139",
		"longitude": "-7.156.205",
		"power_station": "50",
		"connector": "CHAdeMO",
		"curret": "DC",
		"power_charger": "50"
	},
	{
		"name": "Shell Placilla",
		"region": "Valparaíso",
		"municipality": "Valparaíso",
		"address": "Ruta 68 km 98. Lado Sur",
		"latitude": "-3.312.139",
		"longitude": "-7.156.205",
		"power_station": "50",
		"connector": "Combinado Tipo 2",
		"curret": "DC",
		"power_charger": "50"
	},
	{
		"name": "Hotel Marriott - 1",
		"region": "Metropolitana",
		"municipality": "Las Condes",
		"address": "Presidente Kennedy 5741",
		"latitude": "-3.339.999",
		"longitude": "-7.057.428",
		"power_station": "22",
		"connector": "Conector Tipo 2",
		"curret": "AC",
		"power_charger": "22"
	},
	{
		"name": "Saba Paseo Bulnes - 1",
		"region": "Metropolitana",
		"municipality": "Santiago",
		"address": "Paseo bulnes 141",
		"latitude": "-3.344.743",
		"longitude": "-706.533",
		"power_station": "7",
		"connector": "Conector Tipo 2",
		"curret": "AC",
		"power_charger": "7"
	},
	{
		"name": "Saba Paseo Bulnes - 1",
		"region": "Metropolitana",
		"municipality": "Santiago",
		"address": "Paseo bulnes 141",
		"latitude": "-3.344.743",
		"longitude": "-706.533",
		"power_station": "7",
		"connector": "Conector Tipo 2",
		"curret": "AC",
		"power_charger": "7"
	},
	{
		"name": "Saba Paseo Bulnes - 1",
		"region": "Metropolitana",
		"municipality": "Santiago",
		"address": "Paseo bulnes 141",
		"latitude": "-3.344.743",
		"longitude": "-706.533",
		"power_station": "7",
		"connector": "Conector Tipo 2",
		"curret": "AC",
		"power_charger": "7"
	},
	{
		"name": "Saba Paseo Bulnes - 2",
		"region": "Metropolitana",
		"municipality": "Santiago",
		"address": "Paseo bulnes 141",
		"latitude": "-3.344.743",
		"longitude": "-706.533",
		"power_station": "7",
		"connector": "Conector Tipo 2",
		"curret": "AC",
		"power_charger": "7"
	},
	{
		"name": "Saba Paseo Bulnes - 2",
		"region": "Metropolitana",
		"municipality": "Santiago",
		"address": "Paseo bulnes 141",
		"latitude": "-3.344.743",
		"longitude": "-706.533",
		"power_station": "7",
		"connector": "Conector Tipo 2",
		"curret": "AC",
		"power_charger": "7"
	},
	{
		"name": "Saba Paseo Bulnes - 2",
		"region": "Metropolitana",
		"municipality": "Santiago",
		"address": "Paseo bulnes 141",
		"latitude": "-3.344.743",
		"longitude": "-706.533",
		"power_station": "7",
		"connector": "Conector Tipo 2",
		"curret": "AC",
		"power_charger": "7"
	},
	{
		"name": "Saba Paseo Bulnes - 3",
		"region": "Metropolitana",
		"municipality": "Santiago",
		"address": "Paseo bulnes 141",
		"latitude": "-3.344.743",
		"longitude": "-706.533",
		"power_station": "7",
		"connector": "Conector Tipo 2",
		"curret": "AC",
		"power_charger": "7"
	},
	{
		"name": "Saba Paseo Bulnes - 3",
		"region": "Metropolitana",
		"municipality": "Santiago",
		"address": "Paseo bulnes 141",
		"latitude": "-3.344.743",
		"longitude": "-706.533",
		"power_station": "7",
		"connector": "Conector Tipo 2",
		"curret": "AC",
		"power_charger": "7"
	},
	{
		"name": "Saba Paseo Bulnes - 3",
		"region": "Metropolitana",
		"municipality": "Santiago",
		"address": "Paseo bulnes 141",
		"latitude": "-3.344.743",
		"longitude": "-706.533",
		"power_station": "7",
		"connector": "Conector Tipo 2",
		"curret": "AC",
		"power_charger": "7"
	},
	{
		"name": "Saba Plaza Mekis - 1",
		"region": "Metropolitana",
		"municipality": "Santiago",
		"address": "Agustinas 735",
		"latitude": "-3.344.038",
		"longitude": "-7.064.727",
		"power_station": "7",
		"connector": "Conector Tipo 2",
		"curret": "AC",
		"power_charger": "7"
	},
	{
		"name": "Saba Plaza Mekis - 2",
		"region": "Metropolitana",
		"municipality": "Santiago",
		"address": "Agustinas 735",
		"latitude": "-3.344.038",
		"longitude": "-7.064.727",
		"power_station": "7",
		"connector": "Conector Tipo 2",
		"curret": "AC",
		"power_charger": "7"
	},
	{
		"name": "Saba Plaza Mekis - 3",
		"region": "Metropolitana",
		"municipality": "Santiago",
		"address": "Agustinas 735",
		"latitude": "-3.344.038",
		"longitude": "-7.064.727",
		"power_station": "7",
		"connector": "Conector Tipo 2",
		"curret": "AC",
		"power_charger": "7"
	},
	{
		"name": "Cargador Av. Calera de tango - 1",
		"region": "Metropolitana",
		"municipality": "Calera de Tango",
		"address": "Av. Calera de Tango frente 345",
		"latitude": "-336.302",
		"longitude": "-7.076.153",
		"power_station": "44",
		"connector": "Conector Tipo 2",
		"curret": "AC",
		"power_charger": "22"
	},
	{
		"name": "Cargador Av. Calera de tango - 1",
		"region": "Metropolitana",
		"municipality": "Calera de Tango",
		"address": "Av. Calera de Tango frente 345",
		"latitude": "-336.302",
		"longitude": "-7.076.153",
		"power_station": "44",
		"connector": "Conector Tipo 2",
		"curret": "AC",
		"power_charger": "22"
	},
	{
		"name": "Cargador Urbano Arturo Prat 234 - 1",
		"region": "Metropolitana",
		"municipality": "Tiltil",
		"address": "Arturo Prat 234",
		"latitude": "-3.308.455",
		"longitude": "-7.092.905",
		"power_station": "44",
		"connector": "Conector Tipo 2",
		"curret": "AC",
		"power_charger": "22"
	},
	{
		"name": "Cargador Urbano Arturo Prat 234 - 1",
		"region": "Metropolitana",
		"municipality": "Tiltil",
		"address": "Arturo Prat 234",
		"latitude": "-3.308.455",
		"longitude": "-7.092.905",
		"power_station": "44",
		"connector": "Conector Tipo 2",
		"curret": "AC",
		"power_charger": "22"
	},
	{
		"name": "Cargador Urbano Cerro Navia Rolando Petersen - 1",
		"region": "Metropolitana",
		"municipality": "Cerro Navia",
		"address": "Rolando Petersen S/N",
		"latitude": "-3.341.348",
		"longitude": "-7.074.713",
		"power_station": "44",
		"connector": "Conector Tipo 2",
		"curret": "AC",
		"power_charger": "22"
	},
	{
		"name": "Cargador Urbano Cerro Navia Rolando Petersen - 1",
		"region": "Metropolitana",
		"municipality": "Cerro Navia",
		"address": "Rolando Petersen S/N",
		"latitude": "-3.341.348",
		"longitude": "-7.074.713",
		"power_station": "44",
		"connector": "Conector Tipo 2",
		"curret": "AC",
		"power_charger": "22"
	},
	{
		"name": "Cargador Urbano Ignacio Carrera Pinto - 1",
		"region": "Metropolitana",
		"municipality": "Tiltil",
		"address": "Ignacio Carrera Pinto S/N",
		"latitude": "-3.308.553",
		"longitude": "-7.092.972",
		"power_station": "44",
		"connector": "Conector Tipo 2",
		"curret": "AC",
		"power_charger": "22"
	},
	{
		"name": "Cargador Urbano Ignacio Carrera Pinto - 1",
		"region": "Metropolitana",
		"municipality": "Tiltil",
		"address": "Ignacio Carrera Pinto S/N",
		"latitude": "-3.308.553",
		"longitude": "-7.092.972",
		"power_station": "44",
		"connector": "Conector Tipo 2",
		"curret": "AC",
		"power_charger": "22"
	},
	{
		"name": "Cargador Urbano Santelices - 1",
		"region": "Metropolitana",
		"municipality": "Isla de Maipo",
		"address": "SANTELICES 145",
		"latitude": "-3.375.583",
		"longitude": "-7.089.779",
		"power_station": "44",
		"connector": "Conector Tipo 2",
		"curret": "AC",
		"power_charger": "22"
	},
	{
		"name": "Cargador Urbano Santelices - 1",
		"region": "Metropolitana",
		"municipality": "Isla de Maipo",
		"address": "SANTELICES 145",
		"latitude": "-3.375.583",
		"longitude": "-7.089.779",
		"power_station": "44",
		"connector": "Conector Tipo 2",
		"curret": "AC",
		"power_charger": "22"
	},
	{
		"name": "COPEC CANTA GALLO - LAS CONDES - 1",
		"region": "Metropolitana",
		"municipality": "Las Condes",
		"address": "AV. LAS CONDES 12145",
		"latitude": "-3.337.418",
		"longitude": "-705.198",
		"power_station": "43",
		"connector": "56",
		"curret": "Conector Tipo 2",
		"power_charger": "AC"
	},
	{
		"name": "COPEC CANTA GALLO - LAS CONDES - 1",
		"region": "Metropolitana",
		"municipality": "Las Condes",
		"address": "AV. LAS CONDES 12145",
		"latitude": "-3.337.418",
		"longitude": "-705.198",
		"power_station": "43",
		"connector": "56",
		"curret": "Conector Tipo 2",
		"power_charger": "AC"
	},
	{
		"name": "Copec Av. Libertad",
		"region": "Valparaíso",
		"municipality": "Viña del Mar",
		"address": "Av. Libertad #501",
		"latitude": "-3.301.732",
		"longitude": "-7.155.049",
		"power_station": "50",
		"connector": "CHAdeMO",
		"curret": "DC",
		"power_charger": "50"
	},
	{
		"name": "Copec Av. Libertad",
		"region": "Valparaíso",
		"municipality": "Viña del Mar",
		"address": "Av. Libertad #501",
		"latitude": "-3.301.732",
		"longitude": "-7.155.049",
		"power_station": "50",
		"connector": "Combinado Tipo 2",
		"curret": "DC",
		"power_charger": "50"
	},
	{
		"name": "Copec Av. Libertad",
		"region": "Valparaíso",
		"municipality": "Viña del Mar",
		"address": "Av. Libertad #501",
		"latitude": "-3.301.732",
		"longitude": "-7.155.049",
		"power_station": "50",
		"connector": "Conector Tipo 2",
		"curret": "AC",
		"power_charger": "43"
	},
	{
		"name": "COPEC CAMILO HENRIQUEZ - PUENTE ALTO - 1",
		"region": "Metropolitana",
		"municipality": "Puente Alto",
		"address": "CAMILO HENRIQUEZ 4583",
		"latitude": "-3.355.784",
		"longitude": "-7.055.931",
		"power_station": "43",
		"connector": "56",
		"curret": "Conector Tipo 2",
		"power_charger": "AC"
	},
	{
		"name": "COPEC CAMILO HENRIQUEZ - PUENTE ALTO - 1",
		"region": "Metropolitana",
		"municipality": "Puente Alto",
		"address": "CAMILO HENRIQUEZ 4583",
		"latitude": "-3.355.784",
		"longitude": "-7.055.931",
		"power_station": "43",
		"connector": "56",
		"curret": "Conector Tipo 2",
		"power_charger": "AC"
	},
	{
		"name": "COPEC CHAMISERO - COLINA - 1",
		"region": "Metropolitana",
		"municipality": "Colina",
		"address": "AV. CHAMISERO 10410",
		"latitude": "-3.330.688",
		"longitude": "-7.066.335",
		"power_station": "43",
		"connector": "56",
		"curret": "Conector Tipo 2",
		"power_charger": "AC"
	},
	{
		"name": "COPEC CHAMISERO - COLINA - 1",
		"region": "Metropolitana",
		"municipality": "Colina",
		"address": "AV. CHAMISERO 10410",
		"latitude": "-3.330.688",
		"longitude": "-7.066.335",
		"power_station": "43",
		"connector": "56",
		"curret": "Conector Tipo 2",
		"power_charger": "AC"
	},
	{
		"name": "COPEC Chillán - 1",
		"region": "Ñuble",
		"municipality": "Chillan Viejo",
		"address": "Ruta 5 Km 409",
		"latitude": "4 Ruta 5 Poniente S/N",
		"longitude": "-3.663.346",
		"power_station": "-7.219.409",
		"connector": "72",
		"curret": "Conector Tipo 2",
		"power_charger": "AC"
	},
	{
		"name": "COPEC Chillán - 1",
		"region": "Ñuble",
		"municipality": "Chillan Viejo",
		"address": "Ruta 5 Km 409",
		"latitude": "4 Ruta 5 Poniente S/N",
		"longitude": "-3.663.346",
		"power_station": "-7.219.409",
		"connector": "72",
		"curret": "Combinado Tipo 2",
		"power_charger": "DC"
	},
	{
		"name": "COPEC Chillán - 1",
		"region": "Ñuble",
		"municipality": "Chillan Viejo",
		"address": "Ruta 5 Km 409",
		"latitude": "4 Ruta 5 Poniente S/N",
		"longitude": "-3.663.346",
		"power_station": "-7.219.409",
		"connector": "72",
		"curret": "CHAdeMO",
		"power_charger": "DC"
	},
	{
		"name": "COPEC Chimbarongo - 1",
		"region": "Libertador Bernardo OHiggins",
		"municipality": "Chimbarongo",
		"address": "PANAMERICANA SUR KM 157",
		"latitude": "-347.348",
		"longitude": "-7.103.964",
		"power_station": "72",
		"connector": "CHAdeMO",
		"curret": "DC",
		"power_charger": "50"
	},
	{
		"name": "COPEC Chimbarongo - 1",
		"region": "Libertador Bernardo OHiggins",
		"municipality": "Chimbarongo",
		"address": "PANAMERICANA SUR KM 157",
		"latitude": "-347.348",
		"longitude": "-7.103.964",
		"power_station": "72",
		"connector": "Combinado Tipo 2",
		"curret": "DC",
		"power_charger": "50"
	},
	{
		"name": "COPEC Chimbarongo - 1",
		"region": "Libertador Bernardo OHiggins",
		"municipality": "Chimbarongo",
		"address": "PANAMERICANA SUR KM 157",
		"latitude": "-347.348",
		"longitude": "-7.103.964",
		"power_station": "72",
		"connector": "Conector Tipo 2",
		"curret": "AC",
		"power_charger": "43"
	},
	{
		"name": "COPEC Colina - 1",
		"region": "Metropolitana",
		"municipality": "Colina",
		"address": "Ruta 5 norte KM 27.5 S/N",
		"latitude": "-3.321.605",
		"longitude": "-7.076.698",
		"power_station": "72",
		"connector": "Conector Tipo 2",
		"curret": "AC",
		"power_charger": "43"
	},
	{
		"name": "COPEC Colina - 1",
		"region": "Metropolitana",
		"municipality": "Colina",
		"address": "Ruta 5 norte KM 27.5 S/N",
		"latitude": "-3.321.605",
		"longitude": "-7.076.698",
		"power_station": "72",
		"connector": "Combinado Tipo 2",
		"curret": "DC",
		"power_charger": "50"
	},
	{
		"name": "COPEC Colina - 1",
		"region": "Metropolitana",
		"municipality": "Colina",
		"address": "Ruta 5 norte KM 27.5 S/N",
		"latitude": "-3.321.605",
		"longitude": "-7.076.698",
		"power_station": "72",
		"connector": "CHAdeMO",
		"curret": "DC",
		"power_charger": "50"
	},
	{
		"name": "COPEC Concepción Prat - 1",
		"region": "Biobío",
		"municipality": "Concepción",
		"address": "Avenida Arturo Prat 289",
		"latitude": "-3.683.281",
		"longitude": "-7.305.743",
		"power_station": "50",
		"connector": "Conector Tipo 2",
		"curret": "AC",
		"power_charger": "43"
	},
	{
		"name": "COPEC Concepción Prat - 1",
		"region": "Biobío",
		"municipality": "Concepción",
		"address": "Avenida Arturo Prat 289",
		"latitude": "-3.683.281",
		"longitude": "-7.305.743",
		"power_station": "50",
		"connector": "CHAdeMO",
		"curret": "DC",
		"power_charger": "50"
	},
	{
		"name": "COPEC Concepción Prat - 1",
		"region": "Biobío",
		"municipality": "Concepción",
		"address": "Avenida Arturo Prat 289",
		"latitude": "-3.683.281",
		"longitude": "-7.305.743",
		"power_station": "50",
		"connector": "Combinado Tipo 2",
		"curret": "DC",
		"power_charger": "50"
	},
	{
		"name": "COPEC Costanera Antofagasta - 1",
		"region": "Antofagasta",
		"municipality": "Antofagasta",
		"address": "EDMUNDO PEREZ ZUJOVIC 10675",
		"latitude": "-2.356.551",
		"longitude": "-7.039.861",
		"power_station": "72",
		"connector": "CHAdeMO",
		"curret": "DC",
		"power_charger": "50"
	},
	{
		"name": "COPEC Costanera Antofagasta - 1",
		"region": "Antofagasta",
		"municipality": "Antofagasta",
		"address": "EDMUNDO PEREZ ZUJOVIC 10675",
		"latitude": "-2.356.551",
		"longitude": "-7.039.861",
		"power_station": "72",
		"connector": "Conector Tipo 2",
		"curret": "AC",
		"power_charger": "43"
	},
	{
		"name": "COPEC Costanera Antofagasta - 1",
		"region": "Antofagasta",
		"municipality": "Antofagasta",
		"address": "EDMUNDO PEREZ ZUJOVIC 10675",
		"latitude": "-2.356.551",
		"longitude": "-7.039.861",
		"power_station": "72",
		"connector": "Combinado Tipo 2",
		"curret": "DC",
		"power_charger": "50"
	},
	{
		"name": "COPEC Costanera Norte E0 - 1",
		"region": "Metropolitana",
		"municipality": "Vitacura",
		"address": "Costanera Norte Km 2",
		"latitude": "5 E-0 S/N",
		"longitude": "-3.337.513",
		"power_station": "-7.053.187",
		"connector": "175",
		"curret": "Combinado Tipo 2",
		"power_charger": "DC"
	},
	{
		"name": "COPEC Costanera Norte E0 - 1",
		"region": "Metropolitana",
		"municipality": "Vitacura",
		"address": "Costanera Norte Km 2",
		"latitude": "5 E-0 S/N",
		"longitude": "-3.337.513",
		"power_station": "-7.053.187",
		"connector": "175",
		"curret": "CHAdeMO",
		"power_charger": "DC"
	},
	{
		"name": "Copec Costanera Norte",
		"region": " Pudahuel",
		"municipality": "Metropolitana",
		"address": "Pudahuel",
		"latitude": "Costanera Norte km 34",
		"longitude": "-3.343.393",
		"power_station": "-7.081.048",
		"connector": "50",
		"curret": "CHAdeMO",
		"power_charger": "DC"
	},
	{
		"name": "Copec Costanera Norte",
		"region": " Pudahuel",
		"municipality": "Metropolitana",
		"address": "Pudahuel",
		"latitude": "Costanera Norte km 34",
		"longitude": "-3.343.393",
		"power_station": "-7.081.048",
		"connector": "50",
		"curret": "Combinado Tipo 2",
		"power_charger": "DC"
	},
	{
		"name": "Copec Costanera Norte",
		"region": " Pudahuel",
		"municipality": "Metropolitana",
		"address": "Pudahuel",
		"latitude": "Costanera Norte km 34",
		"longitude": "-3.343.393",
		"power_station": "-7.081.048",
		"connector": "50",
		"curret": "Conector Tipo 2",
		"power_charger": "AC"
	},
	{
		"name": "Copec Costanera Norte",
		"region": " Vitacura",
		"municipality": "Metropolitana",
		"address": "Vitacura",
		"latitude": "Costanera Norte km 8 (dirección oriente)",
		"longitude": "-333.821",
		"power_station": "-7.059.316",
		"connector": "50",
		"curret": "CHAdeMO",
		"power_charger": "DC"
	},
	{
		"name": "Copec Costanera Norte",
		"region": " Vitacura",
		"municipality": "Metropolitana",
		"address": "Vitacura",
		"latitude": "Costanera Norte km 8 (dirección oriente)",
		"longitude": "-333.821",
		"power_station": "-7.059.316",
		"connector": "50",
		"curret": "Combinado Tipo 2",
		"power_charger": "DC"
	},
	{
		"name": "Copec Costanera Norte",
		"region": " Vitacura",
		"municipality": "Metropolitana",
		"address": "Vitacura",
		"latitude": "Costanera Norte km 8 (dirección oriente)",
		"longitude": "-333.821",
		"power_station": "-7.059.316",
		"connector": "50",
		"curret": "Conector Tipo 2",
		"power_charger": "AC"
	},
	{
		"name": "COPEC Hijuelas - 1",
		"region": "Valparaíso",
		"municipality": "Hijuelas",
		"address": "Panamericana Norte KM 10 S/N",
		"latitude": "-3.282.762",
		"longitude": "-7.113.017",
		"power_station": "72",
		"connector": "Combinado Tipo 2",
		"curret": "DC",
		"power_charger": "50"
	},
	{
		"name": "COPEC Hijuelas - 1",
		"region": "Valparaíso",
		"municipality": "Hijuelas",
		"address": "Panamericana Norte KM 10 S/N",
		"latitude": "-3.282.762",
		"longitude": "-7.113.017",
		"power_station": "72",
		"connector": "Conector Tipo 2",
		"curret": "AC",
		"power_charger": "43"
	},
	{
		"name": "COPEC Hijuelas - 1",
		"region": "Valparaíso",
		"municipality": "Hijuelas",
		"address": "Panamericana Norte KM 10 S/N",
		"latitude": "-3.282.762",
		"longitude": "-7.113.017",
		"power_station": "72",
		"connector": "CHAdeMO",
		"curret": "DC",
		"power_charger": "50"
	},
	{
		"name": "COPEC Llay Llay - 1",
		"region": "Valparaíso",
		"municipality": "Llaillay",
		"address": "Panamericana Norte Km 83 Ruta 5 Poniente S/N",
		"latitude": "-3.284.235",
		"longitude": "-7.100.309",
		"power_station": "72",
		"connector": "CHAdeMO",
		"curret": "DC",
		"power_charger": "50"
	},
	{
		"name": "COPEC Llay Llay - 1",
		"region": "Valparaíso",
		"municipality": "Llaillay",
		"address": "Panamericana Norte Km 83 Ruta 5 Poniente S/N",
		"latitude": "-3.284.235",
		"longitude": "-7.100.309",
		"power_station": "72",
		"connector": "Combinado Tipo 2",
		"curret": "DC",
		"power_charger": "50"
	},
	{
		"name": "COPEC Llay Llay - 1",
		"region": "Valparaíso",
		"municipality": "Llaillay",
		"address": "Panamericana Norte Km 83 Ruta 5 Poniente S/N",
		"latitude": "-3.284.235",
		"longitude": "-7.100.309",
		"power_station": "72",
		"connector": "Conector Tipo 2",
		"curret": "AC",
		"power_charger": "43"
	},
	{
		"name": "COPEC Los Angeles Ruta 5 km 518",
		"region": "5 - lado poniente - 1",
		"municipality": "Biobío",
		"address": "Los Ángeles",
		"latitude": "RUTA 5 SUR KM 518.5 S/N",
		"longitude": "-3.754.693",
		"power_station": "-7.230.943",
		"connector": "94",
		"curret": "58",
		"power_charger": "CHAdeMO"
	},
	{
		"name": "COPEC Los Angeles Ruta 5 km 518",
		"region": "5 - lado poniente - 1",
		"municipality": "Biobío",
		"address": "Los Ángeles",
		"latitude": "RUTA 5 SUR KM 518.5 S/N",
		"longitude": "-3.754.693",
		"power_station": "-7.230.943",
		"connector": "94",
		"curret": "58",
		"power_charger": "Conector Tipo 2"
	},
	{
		"name": "COPEC Los Angeles Ruta 5 km 518",
		"region": "5 - lado poniente - 1",
		"municipality": "Biobío",
		"address": "Los Ángeles",
		"latitude": "RUTA 5 SUR KM 518.5 S/N",
		"longitude": "-3.754.693",
		"power_station": "-7.230.943",
		"connector": "94",
		"curret": "58",
		"power_charger": "Combinado Tipo 2"
	},
	{
		"name": "COPEC Los Vilos",
		"region": " km 225 - 1",
		"municipality": "Coquimbo",
		"address": "Los Vilos",
		"latitude": "RUTA 5 NORTE S/N",
		"longitude": "-3.188.886",
		"power_station": "-7.149.199",
		"connector": "94",
		"curret": "58",
		"power_charger": "Combinado Tipo 2"
	},
	{
		"name": "COPEC Los Vilos",
		"region": " km 225 - 1",
		"municipality": "Coquimbo",
		"address": "Los Vilos",
		"latitude": "RUTA 5 NORTE S/N",
		"longitude": "-3.188.886",
		"power_station": "-7.149.199",
		"connector": "94",
		"curret": "58",
		"power_charger": "CHAdeMO"
	},
	{
		"name": "COPEC Los Vilos",
		"region": " km 225 - 1",
		"municipality": "Coquimbo",
		"address": "Los Vilos",
		"latitude": "RUTA 5 NORTE S/N",
		"longitude": "-3.188.886",
		"power_station": "-7.149.199",
		"connector": "94",
		"curret": "58",
		"power_charger": "Conector Tipo 2"
	},
	{
		"name": "COPEC Marbella - 1",
		"region": "Valparaíso",
		"municipality": "Puchuncaví",
		"address": "Ruta F30E Lote CC4 S/N",
		"latitude": "-3.267.145",
		"longitude": "-7.142.591",
		"power_station": "72",
		"connector": "Combinado Tipo 2",
		"curret": "DC",
		"power_charger": "50"
	},
	{
		"name": "COPEC Marbella - 1",
		"region": "Valparaíso",
		"municipality": "Puchuncaví",
		"address": "Ruta F30E Lote CC4 S/N",
		"latitude": "-3.267.145",
		"longitude": "-7.142.591",
		"power_station": "72",
		"connector": "Conector Tipo 2",
		"curret": "AC",
		"power_charger": "43"
	},
	{
		"name": "COPEC Marbella - 1",
		"region": "Valparaíso",
		"municipality": "Puchuncaví",
		"address": "Ruta F30E Lote CC4 S/N",
		"latitude": "-3.267.145",
		"longitude": "-7.142.591",
		"power_station": "72",
		"connector": "CHAdeMO",
		"curret": "DC",
		"power_charger": "50"
	},
	{
		"name": "COPEC Maule - 1",
		"region": "Maule",
		"municipality": "Maule",
		"address": "PANAMERICANA SUR KM 265 S/N",
		"latitude": "-35.532",
		"longitude": "-7.168.785",
		"power_station": "72",
		"connector": "Conector Tipo 2",
		"curret": "AC",
		"power_charger": "43"
	},
	{
		"name": "COPEC Maule - 1",
		"region": "Maule",
		"municipality": "Maule",
		"address": "PANAMERICANA SUR KM 265 S/N",
		"latitude": "-35.532",
		"longitude": "-7.168.785",
		"power_station": "72",
		"connector": "Combinado Tipo 2",
		"curret": "DC",
		"power_charger": "50"
	},
	{
		"name": "COPEC Maule - 1",
		"region": "Maule",
		"municipality": "Maule",
		"address": "PANAMERICANA SUR KM 265 S/N",
		"latitude": "-35.532",
		"longitude": "-7.168.785",
		"power_station": "72",
		"connector": "CHAdeMO",
		"curret": "DC",
		"power_charger": "50"
	},
	{
		"name": "COPEC Mostazal Oriente - 1",
		"region": "Libertador Bernardo OHiggins",
		"municipality": "Mostazal",
		"address": "PANAMERICANA SUR KM 67.1 KM 237.6",
		"latitude": "-3.401.669",
		"longitude": "-7.070.271",
		"power_station": "72",
		"connector": "Conector Tipo 2",
		"curret": "AC",
		"power_charger": "43"
	},
	{
		"name": "COPEC Mostazal Oriente - 1",
		"region": "Libertador Bernardo OHiggins",
		"municipality": "Mostazal",
		"address": "PANAMERICANA SUR KM 67.1 KM 237.6",
		"latitude": "-3.401.669",
		"longitude": "-7.070.271",
		"power_station": "72",
		"connector": "Combinado Tipo 2",
		"curret": "DC",
		"power_charger": "50"
	},
	{
		"name": "COPEC Mostazal Oriente - 1",
		"region": "Libertador Bernardo OHiggins",
		"municipality": "Mostazal",
		"address": "PANAMERICANA SUR KM 67.1 KM 237.6",
		"latitude": "-3.401.669",
		"longitude": "-7.070.271",
		"power_station": "72",
		"connector": "CHAdeMO",
		"curret": "DC",
		"power_charger": "50"
	},
	{
		"name": "COPEC Mostazal Poniente - 1",
		"region": "Libertador Bernardo OHiggins",
		"municipality": "Mostazal",
		"address": "Panamericana Sur Km 66.7 Ruta 5 Poniente S/N",
		"latitude": "-3.401.158",
		"longitude": "-7.070.408",
		"power_station": "72",
		"connector": "Conector Tipo 2",
		"curret": "AC",
		"power_charger": "43"
	},
	{
		"name": "COPEC Mostazal Poniente - 1",
		"region": "Libertador Bernardo OHiggins",
		"municipality": "Mostazal",
		"address": "Panamericana Sur Km 66.7 Ruta 5 Poniente S/N",
		"latitude": "-3.401.158",
		"longitude": "-7.070.408",
		"power_station": "72",
		"connector": "CHAdeMO",
		"curret": "DC",
		"power_charger": "50"
	},
	{
		"name": "COPEC Mostazal Poniente - 1",
		"region": "Libertador Bernardo OHiggins",
		"municipality": "Mostazal",
		"address": "Panamericana Sur Km 66.7 Ruta 5 Poniente S/N",
		"latitude": "-3.401.158",
		"longitude": "-7.070.408",
		"power_station": "72",
		"connector": "Combinado Tipo 2",
		"curret": "DC",
		"power_charger": "50"
	},
	{
		"name": "COPEC Parcela 20 Las Vegas de La Serena - 1",
		"region": "Coquimbo",
		"municipality": "La Serena",
		"address": "PARCELA 20 VEGAS SUR S/N",
		"latitude": "-2.994.162",
		"longitude": "-7.128.037",
		"power_station": "94",
		"connector": "58",
		"curret": "Combinado Tipo 2",
		"power_charger": "DC"
	},
	{
		"name": "COPEC Parcela 20 Las Vegas de La Serena - 1",
		"region": "Coquimbo",
		"municipality": "La Serena",
		"address": "PARCELA 20 VEGAS SUR S/N",
		"latitude": "-2.994.162",
		"longitude": "-7.128.037",
		"power_station": "94",
		"connector": "58",
		"curret": "CHAdeMO",
		"power_charger": "DC"
	},
	{
		"name": "COPEC Parcela 20 Las Vegas de La Serena - 1",
		"region": "Coquimbo",
		"municipality": "La Serena",
		"address": "PARCELA 20 VEGAS SUR S/N",
		"latitude": "-2.994.162",
		"longitude": "-7.128.037",
		"power_station": "94",
		"connector": "58",
		"curret": "Conector Tipo 2",
		"power_charger": "AC"
	},
	{
		"name": "COPEC Parral - 1",
		"region": "Maule",
		"municipality": "Parral",
		"address": "Panamericana Sur 339 S/N",
		"latitude": "-3.613.353",
		"longitude": "-7.180.768",
		"power_station": "72",
		"connector": "CHAdeMO",
		"curret": "DC",
		"power_charger": "50"
	},
	{
		"name": "COPEC Parral - 1",
		"region": "Maule",
		"municipality": "Parral",
		"address": "Panamericana Sur 339 S/N",
		"latitude": "-3.613.353",
		"longitude": "-7.180.768",
		"power_station": "72",
		"connector": "Combinado Tipo 2",
		"curret": "DC",
		"power_charger": "50"
	},
	{
		"name": "COPEC Parral - 1",
		"region": "Maule",
		"municipality": "Parral",
		"address": "Panamericana Sur 339 S/N",
		"latitude": "-3.613.353",
		"longitude": "-7.180.768",
		"power_station": "72",
		"connector": "Conector Tipo 2",
		"curret": "AC",
		"power_charger": "43"
	},
	{
		"name": "COPEC PEDRO FONTOVA - HUECHURABA - 1",
		"region": "Metropolitana",
		"municipality": "Huechuraba",
		"address": "AV. PEDRO FONTOVA 6789",
		"latitude": "-3.336.017",
		"longitude": "-7.066.956",
		"power_station": "43",
		"connector": "56",
		"curret": "Conector Tipo 2",
		"power_charger": "AC"
	},
	{
		"name": "COPEC PEDRO FONTOVA - HUECHURABA - 1",
		"region": "Metropolitana",
		"municipality": "Huechuraba",
		"address": "AV. PEDRO FONTOVA 6789",
		"latitude": "-3.336.017",
		"longitude": "-7.066.956",
		"power_station": "43",
		"connector": "56",
		"curret": "Conector Tipo 2",
		"power_charger": "AC"
	},
	{
		"name": "COPEC Placilla - 1",
		"region": "Valparaíso",
		"municipality": "Valparaíso",
		"address": "Placilla KM 105 S/N",
		"latitude": "-3.312.796",
		"longitude": "-7.156.282",
		"power_station": "72",
		"connector": "CHAdeMO",
		"curret": "DC",
		"power_charger": "50"
	},
	{
		"name": "COPEC Placilla - 1",
		"region": "Valparaíso",
		"municipality": "Valparaíso",
		"address": "Placilla KM 105 S/N",
		"latitude": "-3.312.796",
		"longitude": "-7.156.282",
		"power_station": "72",
		"connector": "Combinado Tipo 2",
		"curret": "DC",
		"power_charger": "50"
	},
	{
		"name": "COPEC Placilla - 1",
		"region": "Valparaíso",
		"municipality": "Valparaíso",
		"address": "Placilla KM 105 S/N",
		"latitude": "-3.312.796",
		"longitude": "-7.156.282",
		"power_station": "72",
		"connector": "Conector Tipo 2",
		"curret": "AC",
		"power_charger": "43"
	},
	{
		"name": "COPEC Ruta 5 Norte km 370 -Socos",
		"region": " Ovalle - 1",
		"municipality": "Coquimbo",
		"address": "Ovalle",
		"latitude": "RUTA 5 NORTE km 370",
		"longitude": "-3.071.884",
		"power_station": "-7.149.479",
		"connector": "94",
		"curret": "58",
		"power_charger": "Combinado Tipo 2"
	},
	{
		"name": "COPEC Ruta 5 Norte km 370 -Socos",
		"region": " Ovalle - 1",
		"municipality": "Coquimbo",
		"address": "Ovalle",
		"latitude": "RUTA 5 NORTE km 370",
		"longitude": "-3.071.884",
		"power_station": "-7.149.479",
		"connector": "94",
		"curret": "58",
		"power_charger": "CHAdeMO"
	},
	{
		"name": "COPEC Ruta 5 Norte km 370 -Socos",
		"region": " Ovalle - 1",
		"municipality": "Coquimbo",
		"address": "Ovalle",
		"latitude": "RUTA 5 NORTE km 370",
		"longitude": "-3.071.884",
		"power_station": "-7.149.479",
		"connector": "94",
		"curret": "58",
		"power_charger": "Conector Tipo 2"
	},
	{
		"name": "COPEC Ruta 5 Norte km 205. Palo Colorado Oriente - 1",
		"region": "Coquimbo",
		"municipality": "Los Vilos",
		"address": "RUTA 5 NORTE ORIENTE km 205",
		"latitude": "-3.207.951",
		"longitude": "-7.151.586",
		"power_station": "94",
		"connector": "58",
		"curret": "Combinado Tipo 2",
		"power_charger": "DC"
	},
	{
		"name": "COPEC Ruta 5 Norte km 205. Palo Colorado Oriente - 1",
		"region": "Coquimbo",
		"municipality": "Los Vilos",
		"address": "RUTA 5 NORTE ORIENTE km 205",
		"latitude": "-3.207.951",
		"longitude": "-7.151.586",
		"power_station": "94",
		"connector": "58",
		"curret": "Conector Tipo 2",
		"power_charger": "AC"
	},
	{
		"name": "COPEC Ruta 5 Norte km 205. Palo Colorado Oriente - 1",
		"region": "Coquimbo",
		"municipality": "Los Vilos",
		"address": "RUTA 5 NORTE ORIENTE km 205",
		"latitude": "-3.207.951",
		"longitude": "-7.151.586",
		"power_station": "94",
		"connector": "58",
		"curret": "CHAdeMO",
		"power_charger": "DC"
	},
	{
		"name": "Copec ruta 5 Norte km 205. Palo Colorado Poniente - 1",
		"region": "Coquimbo",
		"municipality": "Los Vilos",
		"address": "RUTA 5 NORTE PONIENTE KM 205 S/N",
		"latitude": "-3.207.854",
		"longitude": "-7.151.752",
		"power_station": "94",
		"connector": "58",
		"curret": "Conector Tipo 2",
		"power_charger": "AC"
	},
	{
		"name": "Copec ruta 5 Norte km 205. Palo Colorado Poniente - 1",
		"region": "Coquimbo",
		"municipality": "Los Vilos",
		"address": "RUTA 5 NORTE PONIENTE KM 205 S/N",
		"latitude": "-3.207.854",
		"longitude": "-7.151.752",
		"power_station": "94",
		"connector": "58",
		"curret": "CHAdeMO",
		"power_charger": "DC"
	},
	{
		"name": "Copec ruta 5 Norte km 205. Palo Colorado Poniente - 1",
		"region": "Coquimbo",
		"municipality": "Los Vilos",
		"address": "RUTA 5 NORTE PONIENTE KM 205 S/N",
		"latitude": "-3.207.854",
		"longitude": "-7.151.752",
		"power_station": "94",
		"connector": "58",
		"curret": "Combinado Tipo 2",
		"power_charger": "DC"
	},
	{
		"name": "COPEC Ruta 5 Sur km 484. Los Alamos - 1",
		"region": "Biobío",
		"municipality": "Los Alamos",
		"address": "RUTA 5 SUR KM 484 S/N",
		"latitude": "-3.728.321",
		"longitude": "-7.235.431",
		"power_station": "94",
		"connector": "58",
		"curret": "CHAdeMO",
		"power_charger": "DC"
	},
	{
		"name": "COPEC Ruta 5 Sur km 484. Los Alamos - 1",
		"region": "Biobío",
		"municipality": "Los Alamos",
		"address": "RUTA 5 SUR KM 484 S/N",
		"latitude": "-3.728.321",
		"longitude": "-7.235.431",
		"power_station": "94",
		"connector": "58",
		"curret": "Conector Tipo 2",
		"power_charger": "AC"
	},
	{
		"name": "COPEC Ruta 5 Sur km 484. Los Alamos - 1",
		"region": "Biobío",
		"municipality": "Los Alamos",
		"address": "RUTA 5 SUR KM 484 S/N",
		"latitude": "-3.728.321",
		"longitude": "-7.235.431",
		"power_station": "94",
		"connector": "58",
		"curret": "Combinado Tipo 2",
		"power_charger": "DC"
	},
	{
		"name": "Copec Ruta 5 Sur km 614",
		"region": "5. Victoria - 1",
		"municipality": "La Araucanía",
		"address": "Victoria",
		"latitude": "RUTA 5 SUR KM 614.4 S/N",
		"longitude": "-3.827.936",
		"power_station": "-7.236.559",
		"connector": "94",
		"curret": "58",
		"power_charger": "Conector Tipo 2"
	},
	{
		"name": "Copec Ruta 5 Sur km 614",
		"region": "5. Victoria - 1",
		"municipality": "La Araucanía",
		"address": "Victoria",
		"latitude": "RUTA 5 SUR KM 614.4 S/N",
		"longitude": "-3.827.936",
		"power_station": "-7.236.559",
		"connector": "94",
		"curret": "58",
		"power_charger": "CHAdeMO"
	},
	{
		"name": "Copec Ruta 5 Sur km 614",
		"region": "5. Victoria - 1",
		"municipality": "La Araucanía",
		"address": "Victoria",
		"latitude": "RUTA 5 SUR KM 614.4 S/N",
		"longitude": "-3.827.936",
		"power_station": "-7.236.559",
		"connector": "94",
		"curret": "58",
		"power_charger": "Combinado Tipo 2"
	},
	{
		"name": "COPEC Ruta 78- Lado Norte - 1",
		"region": "Metropolitana",
		"municipality": "Talagante",
		"address": "AUTOPISTA DEL SOL NORTE RUTA 78 NORTE KM 31 1/2",
		"latitude": "-3.363.276",
		"longitude": "-7.086.888",
		"power_station": "72",
		"connector": "CHAdeMO",
		"curret": "DC",
		"power_charger": "50"
	},
	{
		"name": "COPEC Ruta 78- Lado Norte - 1",
		"region": "Metropolitana",
		"municipality": "Talagante",
		"address": "AUTOPISTA DEL SOL NORTE RUTA 78 NORTE KM 31 1/2",
		"latitude": "-3.363.276",
		"longitude": "-7.086.888",
		"power_station": "72",
		"connector": "Conector Tipo 2",
		"curret": "AC",
		"power_charger": "43"
	},
	{
		"name": "COPEC Ruta 78- Lado Norte - 1",
		"region": "Metropolitana",
		"municipality": "Talagante",
		"address": "AUTOPISTA DEL SOL NORTE RUTA 78 NORTE KM 31 1/2",
		"latitude": "-3.363.276",
		"longitude": "-7.086.888",
		"power_station": "72",
		"connector": "Combinado Tipo 2",
		"curret": "DC",
		"power_charger": "50"
	},
	{
		"name": "COPEC Ruta 78- Lado Sur - 1",
		"region": "Metropolitana",
		"municipality": "Talagante",
		"address": "AUTOPISTA DEL SOL RUTA 78 SUR KM 31 1/2",
		"latitude": "-3.363.436",
		"longitude": "-7.086.855",
		"power_station": "72",
		"connector": "CHAdeMO",
		"curret": "DC",
		"power_charger": "50"
	},
	{
		"name": "COPEC Ruta 78- Lado Sur - 1",
		"region": "Metropolitana",
		"municipality": "Talagante",
		"address": "AUTOPISTA DEL SOL RUTA 78 SUR KM 31 1/2",
		"latitude": "-3.363.436",
		"longitude": "-7.086.855",
		"power_station": "72",
		"connector": "Combinado Tipo 2",
		"curret": "DC",
		"power_charger": "50"
	},
	{
		"name": "COPEC Ruta 78- Lado Sur - 1",
		"region": "Metropolitana",
		"municipality": "Talagante",
		"address": "AUTOPISTA DEL SOL RUTA 78 SUR KM 31 1/2",
		"latitude": "-3.363.436",
		"longitude": "-7.086.855",
		"power_station": "72",
		"connector": "Conector Tipo 2",
		"curret": "AC",
		"power_charger": "43"
	},
	{
		"name": "COPEC San Carlos - 1",
		"region": "Ñuble",
		"municipality": "San Carlos",
		"address": "Ruta 5 Sur KM 380 Ruta 5 Oriente San Carlos S/N",
		"latitude": "-3.647.158",
		"longitude": "-7.200.754",
		"power_station": "72",
		"connector": "CHAdeMO",
		"curret": "DC",
		"power_charger": "50"
	},
	{
		"name": "COPEC San Carlos - 1",
		"region": "Ñuble",
		"municipality": "San Carlos",
		"address": "Ruta 5 Sur KM 380 Ruta 5 Oriente San Carlos S/N",
		"latitude": "-3.647.158",
		"longitude": "-7.200.754",
		"power_station": "72",
		"connector": "Combinado Tipo 2",
		"curret": "DC",
		"power_charger": "50"
	},
	{
		"name": "COPEC San Carlos - 1",
		"region": "Ñuble",
		"municipality": "San Carlos",
		"address": "Ruta 5 Sur KM 380 Ruta 5 Oriente San Carlos S/N",
		"latitude": "-3.647.158",
		"longitude": "-7.200.754",
		"power_station": "72",
		"connector": "Conector Tipo 2",
		"curret": "AC",
		"power_charger": "43"
	},
	{
		"name": "COPEC SAN EUGENIO - ÑUÑOA - 1",
		"region": "Metropolitana",
		"municipality": "Nunoa",
		"address": "SAN EUGENIO 1602",
		"latitude": "-3.346.699",
		"longitude": "-7.062.305",
		"power_station": "21",
		"connector": "78",
		"curret": "Conector Tipo 2",
		"power_charger": "AC"
	},
	{
		"name": "COPEC SAN EUGENIO - ÑUÑOA - 1",
		"region": "Metropolitana",
		"municipality": "Nunoa",
		"address": "SAN EUGENIO 1602",
		"latitude": "-3.346.699",
		"longitude": "-7.062.305",
		"power_station": "21",
		"connector": "78",
		"curret": "Conector Tipo 2",
		"power_charger": "AC"
	},
	{
		"name": "COPEC San Fernando - 1",
		"region": "Libertador Bernardo OHiggins",
		"municipality": "San Fernando",
		"address": "RUTA 5 SUR KM 127 KM 127",
		"latitude": "-3.450.869",
		"longitude": "-7.092.284",
		"power_station": "72",
		"connector": "CHAdeMO",
		"curret": "DC",
		"power_charger": "50"
	},
	{
		"name": "COPEC San Fernando - 1",
		"region": "Libertador Bernardo OHiggins",
		"municipality": "San Fernando",
		"address": "RUTA 5 SUR KM 127 KM 127",
		"latitude": "-3.450.869",
		"longitude": "-7.092.284",
		"power_station": "72",
		"connector": "Combinado Tipo 2",
		"curret": "DC",
		"power_charger": "50"
	},
	{
		"name": "COPEC San Fernando - 1",
		"region": "Libertador Bernardo OHiggins",
		"municipality": "San Fernando",
		"address": "RUTA 5 SUR KM 127 KM 127",
		"latitude": "-3.450.869",
		"longitude": "-7.092.284",
		"power_station": "72",
		"connector": "Conector Tipo 2",
		"curret": "AC",
		"power_charger": "43"
	},
	{
		"name": "COPEC San Javier - 1",
		"region": "Maule",
		"municipality": "San Javier",
		"address": "Longitudinal Sur Km 275",
		"latitude": "3 S/N",
		"longitude": "-3.561.632",
		"power_station": "-7.170.185",
		"connector": "72",
		"curret": "CHAdeMO",
		"power_charger": "DC"
	},
	{
		"name": "COPEC San Javier - 1",
		"region": "Maule",
		"municipality": "San Javier",
		"address": "Longitudinal Sur Km 275",
		"latitude": "3 S/N",
		"longitude": "-3.561.632",
		"power_station": "-7.170.185",
		"connector": "72",
		"curret": "Conector Tipo 2",
		"power_charger": "AC"
	},
	{
		"name": "COPEC San Javier - 1",
		"region": "Maule",
		"municipality": "San Javier",
		"address": "Longitudinal Sur Km 275",
		"latitude": "3 S/N",
		"longitude": "-3.561.632",
		"power_station": "-7.170.185",
		"connector": "72",
		"curret": "Combinado Tipo 2",
		"power_charger": "DC"
	},
	{
		"name": "COPEC San Rafael - 1",
		"region": "Maule",
		"municipality": "San Rafael",
		"address": "Ruta 5 Sur KM 237 Ruta 5 Oriente S/N",
		"latitude": "-3.532.066",
		"longitude": "-7.153.936",
		"power_station": "72",
		"connector": "Conector Tipo 2",
		"curret": "AC",
		"power_charger": "43"
	},
	{
		"name": "COPEC San Rafael - 1",
		"region": "Maule",
		"municipality": "San Rafael",
		"address": "Ruta 5 Sur KM 237 Ruta 5 Oriente S/N",
		"latitude": "-3.532.066",
		"longitude": "-7.153.936",
		"power_station": "72",
		"connector": "CHAdeMO",
		"curret": "DC",
		"power_charger": "50"
	},
	{
		"name": "COPEC San Rafael - 1",
		"region": "Maule",
		"municipality": "San Rafael",
		"address": "Ruta 5 Sur KM 237 Ruta 5 Oriente S/N",
		"latitude": "-3.532.066",
		"longitude": "-7.153.936",
		"power_station": "72",
		"connector": "Combinado Tipo 2",
		"curret": "DC",
		"power_charger": "50"
	},
	{
		"name": "COPEC SAN RAMON - LAS CONDES - 1",
		"region": "Metropolitana",
		"municipality": "Las Condes",
		"address": "SAN RAMON 2701",
		"latitude": "-3.340.754",
		"longitude": "-7.051.114",
		"power_station": "21",
		"connector": "78",
		"curret": "Conector Tipo 2",
		"power_charger": "AC"
	},
	{
		"name": "COPEC SAN RAMON - LAS CONDES - 1",
		"region": "Metropolitana",
		"municipality": "Las Condes",
		"address": "SAN RAMON 2701",
		"latitude": "-3.340.754",
		"longitude": "-7.051.114",
		"power_station": "21",
		"connector": "78",
		"curret": "Conector Tipo 2",
		"power_charger": "AC"
	},
	{
		"name": "COPEC Santo Domingo - 1",
		"region": "Valparaíso",
		"municipality": "Santo Domingo",
		"address": "Teniente Cruz Martinez 70",
		"latitude": "-3.364.615",
		"longitude": "-716.246",
		"power_station": "72",
		"connector": "CHAdeMO",
		"curret": "DC",
		"power_charger": "50"
	},
	{
		"name": "COPEC Santo Domingo - 1",
		"region": "Valparaíso",
		"municipality": "Santo Domingo",
		"address": "Teniente Cruz Martinez 70",
		"latitude": "-3.364.615",
		"longitude": "-716.246",
		"power_station": "72",
		"connector": "Combinado Tipo 2",
		"curret": "DC",
		"power_charger": "50"
	},
	{
		"name": "COPEC Santo Domingo - 1",
		"region": "Valparaíso",
		"municipality": "Santo Domingo",
		"address": "Teniente Cruz Martinez 70",
		"latitude": "-3.364.615",
		"longitude": "-716.246",
		"power_station": "72",
		"connector": "Conector Tipo 2",
		"curret": "AC",
		"power_charger": "43"
	},
	{
		"name": "Copec Temuco - 1",
		"region": "La Araucanía",
		"municipality": "Temuco",
		"address": "AV. ALEMANIA 83",
		"latitude": "-3.873.616",
		"longitude": "-7.260.273",
		"power_station": "94",
		"connector": "58",
		"curret": "CHAdeMO",
		"power_charger": "DC"
	},
	{
		"name": "Copec Temuco - 1",
		"region": "La Araucanía",
		"municipality": "Temuco",
		"address": "AV. ALEMANIA 83",
		"latitude": "-3.873.616",
		"longitude": "-7.260.273",
		"power_station": "94",
		"connector": "58",
		"curret": "Conector Tipo 2",
		"power_charger": "AC"
	},
	{
		"name": "Copec Temuco - 1",
		"region": "La Araucanía",
		"municipality": "Temuco",
		"address": "AV. ALEMANIA 83",
		"latitude": "-3.873.616",
		"longitude": "-7.260.273",
		"power_station": "94",
		"connector": "58",
		"curret": "Combinado Tipo 2",
		"power_charger": "DC"
	},
	{
		"name": "ESTACION DE SERVICIOS COPEC COQUIMBO SALIDA SUR - 1",
		"region": "Coquimbo",
		"municipality": "Coquimbo",
		"address": "RUTA 5 NORTE PONIENTE KM 455 S/N",
		"latitude": "-3.001.266",
		"longitude": "-713.784",
		"power_station": "94",
		"connector": "58",
		"curret": "CHAdeMO",
		"power_charger": "DC"
	},
	{
		"name": "ESTACION DE SERVICIOS COPEC COQUIMBO SALIDA SUR - 1",
		"region": "Coquimbo",
		"municipality": "Coquimbo",
		"address": "RUTA 5 NORTE PONIENTE KM 455 S/N",
		"latitude": "-3.001.266",
		"longitude": "-713.784",
		"power_station": "94",
		"connector": "58",
		"curret": "Conector Tipo 2",
		"power_charger": "AC"
	},
	{
		"name": "ESTACION DE SERVICIOS COPEC COQUIMBO SALIDA SUR - 1",
		"region": "Coquimbo",
		"municipality": "Coquimbo",
		"address": "RUTA 5 NORTE PONIENTE KM 455 S/N",
		"latitude": "-3.001.266",
		"longitude": "-713.784",
		"power_station": "94",
		"connector": "58",
		"curret": "Combinado Tipo 2",
		"power_charger": "DC"
	},
	{
		"name": "ESTACION DE SERVICIOS COPEC LAUTARO - 1",
		"region": "La Araucanía",
		"municipality": "Lautaro",
		"address": "RUTA 5 SUR KM 645 S/N",
		"latitude": "-3.854.944",
		"longitude": "-7.245.759",
		"power_station": "94",
		"connector": "58",
		"curret": "CHAdeMO",
		"power_charger": "DC"
	},
	{
		"name": "ESTACION DE SERVICIOS COPEC LAUTARO - 1",
		"region": "La Araucanía",
		"municipality": "Lautaro",
		"address": "RUTA 5 SUR KM 645 S/N",
		"latitude": "-3.854.944",
		"longitude": "-7.245.759",
		"power_station": "94",
		"connector": "58",
		"curret": "Conector Tipo 2",
		"power_charger": "AC"
	},
	{
		"name": "ESTACION DE SERVICIOS COPEC LAUTARO - 1",
		"region": "La Araucanía",
		"municipality": "Lautaro",
		"address": "RUTA 5 SUR KM 645 S/N",
		"latitude": "-3.854.944",
		"longitude": "-7.245.759",
		"power_station": "94",
		"connector": "58",
		"curret": "Combinado Tipo 2",
		"power_charger": "DC"
	},
	{
		"name": "Estacionamiento Unimarc -La Reina - 1",
		"region": "Metropolitana",
		"municipality": "La Reina",
		"address": "Av. Principe de Gales con Aguas Claras S/N",
		"latitude": "-3.343.937",
		"longitude": "-7.055.639",
		"power_station": "22",
		"connector": "Conector Tipo 2",
		"curret": "AC",
		"power_charger": "7"
	},
	{
		"name": "Estacionamiento Unimarc -La Reina - 1",
		"region": "Metropolitana",
		"municipality": "La Reina",
		"address": "Av. Principe de Gales con Aguas Claras S/N",
		"latitude": "-3.343.937",
		"longitude": "-7.055.639",
		"power_station": "22",
		"connector": "Conector Tipo 2",
		"curret": "AC",
		"power_charger": "7"
	},
	{
		"name": "Plaza Carlos Ossandón - 1",
		"region": "Metropolitana",
		"municipality": "La Reina",
		"address": "AV. ECHENIQUE CON CARLOS OSSANDON S/N",
		"latitude": "-3.344.196",
		"longitude": "-7.054.344",
		"power_station": "22",
		"connector": "Conector Tipo 2",
		"curret": "AC",
		"power_charger": "7"
	},
	{
		"name": "Plaza Carlos Ossandón - 1",
		"region": "Metropolitana",
		"municipality": "La Reina",
		"address": "AV. ECHENIQUE CON CARLOS OSSANDON S/N",
		"latitude": "-3.344.196",
		"longitude": "-7.054.344",
		"power_station": "22",
		"connector": "Conector Tipo 2",
		"curret": "AC",
		"power_charger": "7"
	},
	{
		"name": "Plaza Felix Margoz-Cerrillo - 1",
		"region": "Metropolitana",
		"municipality": "Cerrillos",
		"address": "AV. PEDRO AGUIRRE CERDA CON FELIX MARGOZ S/N",
		"latitude": "-3.349.439",
		"longitude": "-7.070.549",
		"power_station": "22",
		"connector": "Conector Tipo 2",
		"curret": "AC",
		"power_charger": "7"
	},
	{
		"name": "Plaza Felix Margoz-Cerrillo - 1",
		"region": "Metropolitana",
		"municipality": "Cerrillos",
		"address": "AV. PEDRO AGUIRRE CERDA CON FELIX MARGOZ S/N",
		"latitude": "-3.349.439",
		"longitude": "-7.070.549",
		"power_station": "22",
		"connector": "Conector Tipo 2",
		"curret": "AC",
		"power_charger": "7"
	},
	{
		"name": "Ambrosio O\"Higgins - 1",
		"region": "Metropolitana",
		"municipality": "Curacaví",
		"address": "Ambrosio O\"Higgins frente a 1305",
		"latitude": "-3.340.542",
		"longitude": "-711.368",
		"power_station": "43",
		"connector": "56",
		"curret": "Conector Tipo 2",
		"power_charger": "AC"
	},
	{
		"name": "Ambrosio O\"Higgins - 1",
		"region": "Metropolitana",
		"municipality": "Curacaví",
		"address": "Ambrosio O\"Higgins frente a 1305",
		"latitude": "-3.340.542",
		"longitude": "-711.368",
		"power_station": "43",
		"connector": "56",
		"curret": "Conector Tipo 2",
		"power_charger": "AC"
	},
	{
		"name": "Av. Los Pajaritos - 1",
		"region": "Metropolitana",
		"municipality": "Maipú",
		"address": "Avda. Los Pajaritos S/N 000",
		"latitude": "-3.349.224",
		"longitude": "-7.075.532",
		"power_station": "43",
		"connector": "56",
		"curret": "Conector Tipo 2",
		"power_charger": "AC"
	},
	{
		"name": "Av. Los Pajaritos - 1",
		"region": "Metropolitana",
		"municipality": "Maipú",
		"address": "Avda. Los Pajaritos S/N 000",
		"latitude": "-3.349.224",
		"longitude": "-7.075.532",
		"power_station": "43",
		"connector": "56",
		"curret": "Conector Tipo 2",
		"power_charger": "AC"
	},
	{
		"name": "Av. Quilin - 1",
		"region": "Metropolitana",
		"municipality": "Macul",
		"address": "Av. Quilin frente al 3250",
		"latitude": "-3.348.513",
		"longitude": "-7.059.783",
		"power_station": "43",
		"connector": "56",
		"curret": "Conector Tipo 2",
		"power_charger": "AC"
	},
	{
		"name": "Av. Quilin - 1",
		"region": "Metropolitana",
		"municipality": "Macul",
		"address": "Av. Quilin frente al 3250",
		"latitude": "-3.348.513",
		"longitude": "-7.059.783",
		"power_station": "43",
		"connector": "56",
		"curret": "Conector Tipo 2",
		"power_charger": "AC"
	},
	{
		"name": "Cargador Eléctrico Alhue - 1",
		"region": "Metropolitana",
		"municipality": "Alhué",
		"address": "Esmeralda frente al 198",
		"latitude": "-3.403.143",
		"longitude": "-7.110.103",
		"power_station": "43",
		"connector": "56",
		"curret": "Conector Tipo 2",
		"power_charger": "AC"
	},
	{
		"name": "Cargador Eléctrico Alhue - 1",
		"region": "Metropolitana",
		"municipality": "Alhué",
		"address": "Esmeralda frente al 198",
		"latitude": "-3.403.143",
		"longitude": "-7.110.103",
		"power_station": "43",
		"connector": "56",
		"curret": "Conector Tipo 2",
		"power_charger": "AC"
	},
	{
		"name": "Cargador Eléctrico Avenida Costanera Ferrea - 1",
		"region": "Metropolitana",
		"municipality": "Quilicura",
		"address": "Avenida Costanera Férrea frente al 0495",
		"latitude": "-3.335.561",
		"longitude": "-7.071.316",
		"power_station": "43",
		"connector": "56",
		"curret": "Conector Tipo 2",
		"power_charger": "AC"
	},
	{
		"name": "Cargador Eléctrico Avenida Costanera Ferrea - 1",
		"region": "Metropolitana",
		"municipality": "Quilicura",
		"address": "Avenida Costanera Férrea frente al 0495",
		"latitude": "-3.335.561",
		"longitude": "-7.071.316",
		"power_station": "43",
		"connector": "56",
		"curret": "Conector Tipo 2",
		"power_charger": "AC"
	},
	{
		"name": "Cargador Eléctrico Aviador - 1",
		"region": "Metropolitana",
		"municipality": "Quinta Normal",
		"address": "Aviador Bleriot frente a 2215",
		"latitude": "-3.342.286",
		"longitude": "-7.069.296",
		"power_station": "43",
		"connector": "56",
		"curret": "Conector Tipo 2",
		"power_charger": "AC"
	},
	{
		"name": "Cargador Eléctrico Aviador - 1",
		"region": "Metropolitana",
		"municipality": "Quinta Normal",
		"address": "Aviador Bleriot frente a 2215",
		"latitude": "-3.342.286",
		"longitude": "-7.069.296",
		"power_station": "43",
		"connector": "56",
		"curret": "Conector Tipo 2",
		"power_charger": "AC"
	},
	{
		"name": "Cargador Eléctrico Calle San Ignacio - 1",
		"region": "Metropolitana",
		"municipality": "Quilicura",
		"address": "San Ignacio frente al 951",
		"latitude": "-3.333.225",
		"longitude": "-7.070.984",
		"power_station": "43",
		"connector": "56",
		"curret": "Conector Tipo 2",
		"power_charger": "AC"
	},
	{
		"name": "Cargador Eléctrico Calle San Ignacio - 1",
		"region": "Metropolitana",
		"municipality": "Quilicura",
		"address": "San Ignacio frente al 951",
		"latitude": "-3.333.225",
		"longitude": "-7.070.984",
		"power_station": "43",
		"connector": "56",
		"curret": "Conector Tipo 2",
		"power_charger": "AC"
	},
	{
		"name": "Cargador Eléctrico General Korner - 1",
		"region": "Metropolitana",
		"municipality": "El Bosque",
		"address": "General Korner frente a 286",
		"latitude": "-3.355.054",
		"longitude": "-7.067.642",
		"power_station": "43",
		"connector": "56",
		"curret": "Conector Tipo 2",
		"power_charger": "AC"
	},
	{
		"name": "Cargador Eléctrico General Korner - 1",
		"region": "Metropolitana",
		"municipality": "El Bosque",
		"address": "General Korner frente a 286",
		"latitude": "-3.355.054",
		"longitude": "-7.067.642",
		"power_station": "43",
		"connector": "56",
		"curret": "Conector Tipo 2",
		"power_charger": "AC"
	},
	{
		"name": "Cargador Electrico Javiera - 1",
		"region": "Metropolitana",
		"municipality": "El Bosque",
		"address": "Javiera Carrera al oriente del 910",
		"latitude": "-3.355.718",
		"longitude": "-706.648",
		"power_station": "43",
		"connector": "56",
		"curret": "Conector Tipo 2",
		"power_charger": "AC"
	},
	{
		"name": "Cargador Electrico Javiera - 1",
		"region": "Metropolitana",
		"municipality": "El Bosque",
		"address": "Javiera Carrera al oriente del 910",
		"latitude": "-3.355.718",
		"longitude": "-706.648",
		"power_station": "43",
		"connector": "56",
		"curret": "Conector Tipo 2",
		"power_charger": "AC"
	},
	{
		"name": "Cargador Eléctrico Plaza Juan Renz - 1",
		"region": "Metropolitana",
		"municipality": "Macul",
		"address": "Poeta Augusto Winter frente 3941",
		"latitude": "-3.349.003",
		"longitude": "-7.059.367",
		"power_station": "43",
		"connector": "56",
		"curret": "Conector Tipo 2",
		"power_charger": "AC"
	},
	{
		"name": "Cargador Eléctrico Plaza Juan Renz - 1",
		"region": "Metropolitana",
		"municipality": "Macul",
		"address": "Poeta Augusto Winter frente 3941",
		"latitude": "-3.349.003",
		"longitude": "-7.059.367",
		"power_station": "43",
		"connector": "56",
		"curret": "Conector Tipo 2",
		"power_charger": "AC"
	},
	{
		"name": "Cargador Eléctrico Plaza Recsa - 1",
		"region": "Metropolitana",
		"municipality": "Quilicura",
		"address": "Pasaje Dallas frente a 266",
		"latitude": "-3.336.854",
		"longitude": "-7.072.389",
		"power_station": "43",
		"connector": "56",
		"curret": "Conector Tipo 2",
		"power_charger": "AC"
	},
	{
		"name": "Cargador Eléctrico Plaza Recsa - 1",
		"region": "Metropolitana",
		"municipality": "Quilicura",
		"address": "Pasaje Dallas frente a 266",
		"latitude": "-3.336.854",
		"longitude": "-7.072.389",
		"power_station": "43",
		"connector": "56",
		"curret": "Conector Tipo 2",
		"power_charger": "AC"
	},
	{
		"name": "Cargador Eléctrico Radal - 1",
		"region": "Metropolitana",
		"municipality": "Quinta Normal",
		"address": "Radal frente a 1693",
		"latitude": "-334.275",
		"longitude": "-7.070.347",
		"power_station": "43",
		"connector": "56",
		"curret": "Conector Tipo 2",
		"power_charger": "AC"
	},
	{
		"name": "Cargador Eléctrico Radal - 1",
		"region": "Metropolitana",
		"municipality": "Quinta Normal",
		"address": "Radal frente a 1693",
		"latitude": "-334.275",
		"longitude": "-7.070.347",
		"power_station": "43",
		"connector": "56",
		"curret": "Conector Tipo 2",
		"power_charger": "AC"
	},
	{
		"name": "Cargador Eléctrico San Jose de Maipo - 1",
		"region": "Metropolitana",
		"municipality": "San José de Maipo",
		"address": "Uno Sur frente a 0151",
		"latitude": "-3.364.081",
		"longitude": "-7.035.401",
		"power_station": "43",
		"connector": "56",
		"curret": "Conector Tipo 2",
		"power_charger": "AC"
	},
	{
		"name": "Cargador Eléctrico San Jose de Maipo - 1",
		"region": "Metropolitana",
		"municipality": "San José de Maipo",
		"address": "Uno Sur frente a 0151",
		"latitude": "-3.364.081",
		"longitude": "-7.035.401",
		"power_station": "43",
		"connector": "56",
		"curret": "Conector Tipo 2",
		"power_charger": "AC"
	},
	{
		"name": "Lampa - 1",
		"region": "Metropolitana",
		"municipality": "Lampa",
		"address": "Ignacio Carrera Pinto frente 1066",
		"latitude": "-3.328.663",
		"longitude": "-7.087.213",
		"power_station": "43",
		"connector": "56",
		"curret": "Conector Tipo 2",
		"power_charger": "AC"
	},
	{
		"name": "Lampa - 1",
		"region": "Metropolitana",
		"municipality": "Lampa",
		"address": "Ignacio Carrera Pinto frente 1066",
		"latitude": "-3.328.663",
		"longitude": "-7.087.213",
		"power_station": "43",
		"connector": "56",
		"curret": "Conector Tipo 2",
		"power_charger": "AC"
	},
	{
		"name": "Los Platanos - 1",
		"region": "Metropolitana",
		"municipality": "Macul",
		"address": "Los Platanos frente a 3130",
		"latitude": "-3.348.225",
		"longitude": "-705.995",
		"power_station": "43",
		"connector": "56",
		"curret": "Conector Tipo 2",
		"power_charger": "AC"
	},
	{
		"name": "Los Platanos - 1",
		"region": "Metropolitana",
		"municipality": "Macul",
		"address": "Los Platanos frente a 3130",
		"latitude": "-3.348.225",
		"longitude": "-705.995",
		"power_station": "43",
		"connector": "56",
		"curret": "Conector Tipo 2",
		"power_charger": "AC"
	},
	{
		"name": "Maria Pinto - 1",
		"region": "Metropolitana",
		"municipality": "María Pinto",
		"address": "Av. Francisco Costabal frente 78",
		"latitude": "-3.351.715",
		"longitude": "-7.112.376",
		"power_station": "43",
		"connector": "56",
		"curret": "Conector Tipo 2",
		"power_charger": "AC"
	},
	{
		"name": "Maria Pinto - 1",
		"region": "Metropolitana",
		"municipality": "María Pinto",
		"address": "Av. Francisco Costabal frente 78",
		"latitude": "-3.351.715",
		"longitude": "-7.112.376",
		"power_station": "43",
		"connector": "56",
		"curret": "Conector Tipo 2",
		"power_charger": "AC"
	},
	{
		"name": "Paine - 1",
		"region": "Metropolitana",
		"municipality": "Paine",
		"address": "Avenida Baquedano frente 348",
		"latitude": "-338.072",
		"longitude": "-7.074.227",
		"power_station": "43",
		"connector": "56",
		"curret": "Conector Tipo 2",
		"power_charger": "AC"
	},
	{
		"name": "Paine - 1",
		"region": "Metropolitana",
		"municipality": "Paine",
		"address": "Avenida Baquedano frente 348",
		"latitude": "-338.072",
		"longitude": "-7.074.227",
		"power_station": "43",
		"connector": "56",
		"curret": "Conector Tipo 2",
		"power_charger": "AC"
	},
	{
		"name": "Primera Transversal - 1",
		"region": "Metropolitana",
		"municipality": "Maipú",
		"address": "Primera Transversal frente 1970",
		"latitude": "-3.350.926",
		"longitude": "-7.075.314",
		"power_station": "43",
		"connector": "56",
		"curret": "Conector Tipo 2",
		"power_charger": "AC"
	},
	{
		"name": "Primera Transversal - 1",
		"region": "Metropolitana",
		"municipality": "Maipú",
		"address": "Primera Transversal frente 1970",
		"latitude": "-3.350.926",
		"longitude": "-7.075.314",
		"power_station": "43",
		"connector": "56",
		"curret": "Conector Tipo 2",
		"power_charger": "AC"
	},
	{
		"name": "San Pedro - 1",
		"region": "Metropolitana",
		"municipality": "San Pedro",
		"address": "Avenida San Pedro frente a 46",
		"latitude": "-3.389.734",
		"longitude": "-7.145.391",
		"power_station": "43",
		"connector": "56",
		"curret": "Conector Tipo 2",
		"power_charger": "AC"
	},
	{
		"name": "San Pedro - 1",
		"region": "Metropolitana",
		"municipality": "San Pedro",
		"address": "Avenida San Pedro frente a 46",
		"latitude": "-3.389.734",
		"longitude": "-7.145.391",
		"power_station": "43",
		"connector": "56",
		"curret": "Conector Tipo 2",
		"power_charger": "AC"
	},
	{
		"name": "Williams Rebolledo - 1",
		"region": "Metropolitana",
		"municipality": "Curacaví",
		"address": "Williams Rebolledo frente al 1841",
		"latitude": "-3.340.189",
		"longitude": "-7.112.889",
		"power_station": "43",
		"connector": "56",
		"curret": "Conector Tipo 2",
		"power_charger": "AC"
	},
	{
		"name": "Williams Rebolledo - 1",
		"region": "Metropolitana",
		"municipality": "Curacaví",
		"address": "Williams Rebolledo frente al 1841",
		"latitude": "-3.340.189",
		"longitude": "-7.112.889",
		"power_station": "43",
		"connector": "56",
		"curret": "Conector Tipo 2",
		"power_charger": "AC"
	},
	{
		"name": "Duoc UC Huechuraba - 1",
		"region": "Metropolitana",
		"municipality": "Huechuraba",
		"address": "Calle Nueva 1660",
		"latitude": "-3.336.243",
		"longitude": "-706.777",
		"power_station": "22",
		"connector": "Conector Tipo 2",
		"curret": "AC",
		"power_charger": "22"
	},
	{
		"name": "DUOC-UC. San Joaquín - 1",
		"region": "Metropolitana",
		"municipality": "San Joaquín",
		"address": "Vicu¿a Mackenna 4917",
		"latitude": "-3.350.026",
		"longitude": "-7.061.647",
		"power_station": "22",
		"connector": "Conector Tipo 2",
		"curret": "AC",
		"power_charger": "22"
	},
	{
		"name": "DUOC-UC. San Joaquín - 1",
		"region": "Metropolitana",
		"municipality": "San Joaquín",
		"address": "Vicu¿a Mackenna 4917",
		"latitude": "-3.350.026",
		"longitude": "-7.061.647",
		"power_station": "22",
		"connector": "Conector Tipo 2",
		"curret": "AC",
		"power_charger": "22"
	},
	{
		"name": "Smarcity",
		"region": " Ciudad Empresarial - 1",
		"municipality": "Metropolitana",
		"address": "Huechuraba",
		"latitude": "Del Parque 4980",
		"longitude": "-333.889",
		"power_station": "-7.061.664",
		"connector": "22",
		"curret": "Conector Tipo 2",
		"power_charger": "AC"
	},
	{
		"name": "Cargador Vehicular Hotel Intercontinental - 1",
		"region": "Metropolitana",
		"municipality": "Las Condes",
		"address": "Avenida Vitacura 2885",
		"latitude": "-3.341.251",
		"longitude": "-7.060.296",
		"power_station": "7",
		"connector": "7",
		"curret": "Conector Tipo 1",
		"power_charger": "AC"
	},
	{
		"name": "Cargador Vehicular Hotel Intercontinental - 2",
		"region": "Metropolitana",
		"municipality": "Las Condes",
		"address": "Avenida Vitacura 2885",
		"latitude": "-3.341.251",
		"longitude": "-7.060.296",
		"power_station": "22",
		"connector": "Conector Tipo 2",
		"curret": "AC",
		"power_charger": "22"
	},
	{
		"name": "Cargadores Vehiculares Hotel San Francisco - 1",
		"region": "Metropolitana",
		"municipality": "Santiago",
		"address": "Avenida Libertador Bernardo Ohiggins 816",
		"latitude": "-3.344.379",
		"longitude": "-7.064.849",
		"power_station": "7",
		"connector": "7",
		"curret": "Conector Tipo 1",
		"power_charger": "AC"
	},
	{
		"name": "Cargadores Vehiculares Hotel San Francisco - 2",
		"region": "Metropolitana",
		"municipality": "Santiago",
		"address": "Avenida Libertador Bernardo Ohiggins 816",
		"latitude": "-3.344.379",
		"longitude": "-7.064.849",
		"power_station": "22",
		"connector": "Conector Tipo 2",
		"curret": "AC",
		"power_charger": "22"
	},
	{
		"name": "Chillán Centro - 1",
		"region": "Ñuble",
		"municipality": "Chillan",
		"address": "Arauco 878",
		"latitude": "-3.661.084",
		"longitude": "-7.210.415",
		"power_station": "44",
		"connector": "Conector Tipo 2",
		"curret": "AC",
		"power_charger": "22"
	},
	{
		"name": "Chillán Centro - 1",
		"region": "Ñuble",
		"municipality": "Chillan",
		"address": "Arauco 878",
		"latitude": "-3.661.084",
		"longitude": "-7.210.415",
		"power_station": "44",
		"connector": "Conector Tipo 2",
		"curret": "AC",
		"power_charger": "22"
	},
	{
		"name": "Colo Colo N° 410 - 1",
		"region": "La Araucanía",
		"municipality": "Villarrica",
		"address": "Pedro de Valdivia Esq. Colo Colo 410",
		"latitude": "-392.872",
		"longitude": "-7.222.139",
		"power_station": "44",
		"connector": "Conector Tipo 2",
		"curret": "AC",
		"power_charger": "22"
	},
	{
		"name": "Colo Colo N° 410 - 1",
		"region": "La Araucanía",
		"municipality": "Villarrica",
		"address": "Pedro de Valdivia Esq. Colo Colo 410",
		"latitude": "-392.872",
		"longitude": "-7.222.139",
		"power_station": "44",
		"connector": "Conector Tipo 2",
		"curret": "AC",
		"power_charger": "22"
	},
	{
		"name": "Costanera Center - 1",
		"region": "Metropolitana",
		"municipality": "Providencia",
		"address": "Andr¿s Bello 2461",
		"latitude": "-334.203",
		"longitude": "-7.061.128",
		"power_station": "14",
		"connector": "Conector Tipo 1",
		"curret": "AC",
		"power_charger": "7"
	},
	{
		"name": "Costanera Center - 1",
		"region": "Metropolitana",
		"municipality": "Providencia",
		"address": "Andr¿s Bello 2461",
		"latitude": "-334.203",
		"longitude": "-7.061.128",
		"power_station": "14",
		"connector": "Conector Tipo 2",
		"curret": "AC",
		"power_charger": "7"
	},
	{
		"name": "Edificio Enel - 1",
		"region": "Metropolitana",
		"municipality": "Santiago",
		"address": "San Isiidro 85",
		"latitude": "-3.344.436",
		"longitude": "-7.064.454",
		"power_station": "98",
		"connector": "Conector Tipo 2",
		"curret": "AC",
		"power_charger": "43"
	},
	{
		"name": "Edificio Enel - 1",
		"region": "Metropolitana",
		"municipality": "Santiago",
		"address": "San Isiidro 85",
		"latitude": "-3.344.436",
		"longitude": "-7.064.454",
		"power_station": "98",
		"connector": "CHAdeMO",
		"curret": "DC",
		"power_charger": "50"
	},
	{
		"name": "Edificio Enel - 1",
		"region": "Metropolitana",
		"municipality": "Santiago",
		"address": "San Isiidro 85",
		"latitude": "-3.344.436",
		"longitude": "-7.064.454",
		"power_station": "98",
		"connector": "Combinado Tipo 2",
		"curret": "DC",
		"power_charger": "50"
	},
	{
		"name": "Electrolinera-39 - 1",
		"region": "Metropolitana",
		"municipality": "Las Condes",
		"address": "Avenida Presidente Riesco s/n",
		"latitude": "-3.340.137",
		"longitude": "-7.056.781",
		"power_station": "45",
		"connector": "Conector Tipo 2",
		"curret": "AC",
		"power_charger": "22"
	},
	{
		"name": "Electrolinera-39 - 1",
		"region": "Metropolitana",
		"municipality": "Las Condes",
		"address": "Avenida Presidente Riesco s/n",
		"latitude": "-3.340.137",
		"longitude": "-7.056.781",
		"power_station": "45",
		"connector": "Conector Tipo 2",
		"curret": "AC",
		"power_charger": "22"
	},
	{
		"name": "Electrolinera-40 - 1",
		"region": "Metropolitana",
		"municipality": "Las Condes",
		"address": "Cerro Colorado s/n",
		"latitude": "-3.340.423",
		"longitude": "-70",
		"power_station": "58",
		"connector": "45",
		"curret": "Conector Tipo 2",
		"power_charger": "AC"
	},
	{
		"name": "Electrolinera-40 - 1",
		"region": "Metropolitana",
		"municipality": "Las Condes",
		"address": "Cerro Colorado s/n",
		"latitude": "-3.340.423",
		"longitude": "-70",
		"power_station": "58",
		"connector": "45",
		"curret": "Conector Tipo 2",
		"power_charger": "AC"
	},
	{
		"name": "Enel X - Hotel NH Plaza Santiago - 1",
		"region": "Metropolitana",
		"municipality": "Las Condes",
		"address": "Avenida Vitacura 2610",
		"latitude": "-3.341.649",
		"longitude": "-7.060.496",
		"power_station": "7",
		"connector": "4",
		"curret": "Conector Tipo 2",
		"power_charger": "AC"
	},
	{
		"name": "Enel X - Hotel NH Plaza Santiago - 2",
		"region": "Metropolitana",
		"municipality": "Las Condes",
		"address": "Avenida Vitacura 2610",
		"latitude": "-3.341.649",
		"longitude": "-7.060.496",
		"power_station": "7",
		"connector": "4",
		"curret": "Conector Tipo 2",
		"power_charger": "AC"
	},
	{
		"name": "Enel X - Sodimac La Reina - 1",
		"region": "Metropolitana",
		"municipality": "La Reina",
		"address": "av. Jorge Alessandri 1347",
		"latitude": "-3.346.254",
		"longitude": "-7.054.487",
		"power_station": "22",
		"connector": "Conector Tipo 2",
		"curret": "AC",
		"power_charger": "22"
	},
	{
		"name": "Enel X - Sodimac La Reina - 1",
		"region": "Metropolitana",
		"municipality": "La Reina",
		"address": "av. Jorge Alessandri 1347",
		"latitude": "-3.346.254",
		"longitude": "-7.054.487",
		"power_station": "22",
		"connector": "Conector Tipo 2",
		"curret": "AC",
		"power_charger": "22"
	},
	{
		"name": "Enel X - Zona de descanso Itahue. - 1",
		"region": "Maule",
		"municipality": "Molina",
		"address": "Ruta 5 Sur KM 211",
		"latitude": "-3.513.795",
		"longitude": "-7.136.255",
		"power_station": "50",
		"connector": "Conector Tipo 2",
		"curret": "AC",
		"power_charger": "43"
	},
	{
		"name": "Enel X - Zona de descanso Itahue. - 1",
		"region": "Maule",
		"municipality": "Molina",
		"address": "Ruta 5 Sur KM 211",
		"latitude": "-3.513.795",
		"longitude": "-7.136.255",
		"power_station": "50",
		"connector": "CHAdeMO",
		"curret": "DC",
		"power_charger": "50"
	},
	{
		"name": "Enel X - Zona de descanso Itahue. - 1",
		"region": "Maule",
		"municipality": "Molina",
		"address": "Ruta 5 Sur KM 211",
		"latitude": "-3.513.795",
		"longitude": "-7.136.255",
		"power_station": "50",
		"connector": "Combinado Tipo 2",
		"curret": "DC",
		"power_charger": "50"
	},
	{
		"name": "Enel X - Zona de descanso La Platina - 1",
		"region": "Libertador Bernardo OHiggins",
		"municipality": "Chimbarongo",
		"address": "Ruta 5 Sur KM 159",
		"latitude": "-3.477.062",
		"longitude": "-7.104.345",
		"power_station": "50",
		"connector": "Combinado Tipo 2",
		"curret": "DC",
		"power_charger": "50"
	},
	{
		"name": "Enel X - Zona de descanso La Platina - 1",
		"region": "Libertador Bernardo OHiggins",
		"municipality": "Chimbarongo",
		"address": "Ruta 5 Sur KM 159",
		"latitude": "-3.477.062",
		"longitude": "-7.104.345",
		"power_station": "50",
		"connector": "CHAdeMO",
		"curret": "DC",
		"power_charger": "50"
	},
	{
		"name": "Enel X - Zona de descanso La Platina - 1",
		"region": "Libertador Bernardo OHiggins",
		"municipality": "Chimbarongo",
		"address": "Ruta 5 Sur KM 159",
		"latitude": "-3.477.062",
		"longitude": "-7.104.345",
		"power_station": "50",
		"connector": "Conector Tipo 2",
		"curret": "AC",
		"power_charger": "43"
	},
	{
		"name": "Enel X - Zona de descanso Santa Lucila. - 1",
		"region": "Libertador Bernardo OHiggins",
		"municipality": "Requínoa",
		"address": "Ruta 5 Sur KM 98",
		"latitude": "-3.426.589",
		"longitude": "-7.080.982",
		"power_station": "50",
		"connector": "Conector Tipo 2",
		"curret": "AC",
		"power_charger": "43"
	},
	{
		"name": "Enel X - Zona de descanso Santa Lucila. - 1",
		"region": "Libertador Bernardo OHiggins",
		"municipality": "Requínoa",
		"address": "Ruta 5 Sur KM 98",
		"latitude": "-3.426.589",
		"longitude": "-7.080.982",
		"power_station": "50",
		"connector": "Combinado Tipo 2",
		"curret": "DC",
		"power_charger": "50"
	},
	{
		"name": "Enel X - Zona de descanso Santa Lucila. - 1",
		"region": "Libertador Bernardo OHiggins",
		"municipality": "Requínoa",
		"address": "Ruta 5 Sur KM 98",
		"latitude": "-3.426.589",
		"longitude": "-7.080.982",
		"power_station": "50",
		"connector": "CHAdeMO",
		"curret": "DC",
		"power_charger": "50"
	},
	{
		"name": "Enel X- PETROBRAS",
		"region": " Vitacura con Vespucio",
		"municipality": "Metropolitana",
		"address": "Vitacura",
		"latitude": "Av. Américo Vespucio #1665",
		"longitude": "-3.339.894",
		"power_station": "-7.058.718",
		"connector": "50",
		"curret": "CHAdeMO",
		"power_charger": "DC"
	},
	{
		"name": "Enel X- PETROBRAS",
		"region": " Vitacura con Vespucio",
		"municipality": "Metropolitana",
		"address": "Vitacura",
		"latitude": "Av. Américo Vespucio #1665",
		"longitude": "-3.339.894",
		"power_station": "-7.058.718",
		"connector": "50",
		"curret": "Combinado Tipo 2",
		"power_charger": "DC"
	},
	{
		"name": "Enel X- PETROBRAS",
		"region": " Vitacura con Vespucio",
		"municipality": "Metropolitana",
		"address": "Vitacura",
		"latitude": "Av. Américo Vespucio #1665",
		"longitude": "-3.339.894",
		"power_station": "-7.058.718",
		"connector": "50",
		"curret": "Conector Tipo 2",
		"power_charger": "AC"
	},
	{
		"name": "Enel X-Mac Iver",
		"region": " Santiago Centro",
		"municipality": "Metropolitana",
		"address": "Santiago",
		"latitude": "Enrique Mac Iver #424",
		"longitude": "-334.378",
		"power_station": "-7.064.747",
		"connector": "22",
		"curret": "Conector Tipo 2",
		"power_charger": "AC"
	},
	{
		"name": "Enel X-Mall Plaza Los Dominicos",
		"region": "Metropolitana",
		"municipality": "Las Condes",
		"address": "Av. Padre Hurtado Sur #875",
		"latitude": " Piso -2",
		"longitude": "-3.341.512",
		"power_station": "-705.405",
		"connector": "7",
		"curret": "Conector Tipo 2",
		"power_charger": "AC"
	},
	{
		"name": "Enel X-Moneda - Teatinos",
		"region": "Metropolitana",
		"municipality": "Santiago",
		"address": "Moneda #1326",
		"latitude": " esquina Teatinos",
		"longitude": "-3.344.228",
		"power_station": "-706.549",
		"connector": "44",
		"curret": "Conector Tipo 2",
		"power_charger": "AC"
	},
	{
		"name": "Enel X-Moneda - Teatinos",
		"region": "Metropolitana",
		"municipality": "Santiago",
		"address": "Moneda #1326",
		"latitude": " esquina Teatinos",
		"longitude": "-3.344.228",
		"power_station": "-706.549",
		"connector": "44",
		"curret": "Conector Tipo 2",
		"power_charger": "AC"
	},
	{
		"name": "Enel X-Ómnium",
		"region": "Metropolitana",
		"municipality": "Las Condes",
		"address": "Av. Apoquindo #4900",
		"latitude": "-3.341.159",
		"longitude": "-7.057.807",
		"power_station": "44",
		"connector": "Conector Tipo 2",
		"curret": "AC",
		"power_charger": "22"
	},
	{
		"name": "Enel X-Ómnium",
		"region": "Metropolitana",
		"municipality": "Las Condes",
		"address": "Av. Apoquindo #4900",
		"latitude": "-3.341.159",
		"longitude": "-7.057.807",
		"power_station": "44",
		"connector": "Conector Tipo 2",
		"curret": "AC",
		"power_charger": "22"
	},
	{
		"name": "Enel X-Plaza España",
		"region": " Concepción 1",
		"municipality": "Biobío",
		"address": "Concepción",
		"latitude": "Barros Arana #13",
		"longitude": "-3.682.937",
		"power_station": "-7.305.897",
		"connector": "44",
		"curret": "Conector Tipo 2",
		"power_charger": "AC"
	},
	{
		"name": "Enel X-Plaza España",
		"region": " Concepción 1",
		"municipality": "Biobío",
		"address": "Concepción",
		"latitude": "Barros Arana #13",
		"longitude": "-3.682.937",
		"power_station": "-7.305.897",
		"connector": "44",
		"curret": "Conector Tipo 2",
		"power_charger": "AC"
	},
	{
		"name": "Enel X-Plaza España",
		"region": " Concepción 2",
		"municipality": "Biobío",
		"address": "Concepción",
		"latitude": "Barros Arana #13",
		"longitude": "-3.682.937",
		"power_station": "-7.305.897",
		"connector": "22",
		"curret": "Conector Tipo 2",
		"power_charger": "AC"
	},
	{
		"name": "Enel X-Plaza España",
		"region": " Concepción 2",
		"municipality": "Biobío",
		"address": "Concepción",
		"latitude": "Barros Arana #13",
		"longitude": "-3.682.937",
		"power_station": "-7.305.897",
		"connector": "22",
		"curret": "Conector Tipo 2",
		"power_charger": "AC"
	},
	{
		"name": "Estación de Servicio Enel X Station - 1",
		"region": "Metropolitana",
		"municipality": "Pudahuel",
		"address": "Av. Americo Vespucio 1289",
		"latitude": "-3.342.819",
		"longitude": "-7.078.205",
		"power_station": "22",
		"connector": "Conector Tipo 2",
		"curret": "AC",
		"power_charger": "22"
	},
	{
		"name": "Estación de Servicio Enel X Station - 10",
		"region": "Metropolitana",
		"municipality": "Pudahuel",
		"address": "Av. Americo Vespucio 1289",
		"latitude": "-3.342.819",
		"longitude": "-7.078.205",
		"power_station": "60",
		"connector": "Combinado Tipo 2",
		"curret": "DC",
		"power_charger": "60"
	},
	{
		"name": "Estación de Servicio Enel X Station - 10",
		"region": "Metropolitana",
		"municipality": "Pudahuel",
		"address": "Av. Americo Vespucio 1289",
		"latitude": "-3.342.819",
		"longitude": "-7.078.205",
		"power_station": "60",
		"connector": "CHAdeMO",
		"curret": "DC",
		"power_charger": "50"
	},
	{
		"name": "Estación de Servicio Enel X Station - 11",
		"region": "Metropolitana",
		"municipality": "Pudahuel",
		"address": "Av. Americo Vespucio 1289",
		"latitude": "-3.342.819",
		"longitude": "-7.078.205",
		"power_station": "60",
		"connector": "Combinado Tipo 2",
		"curret": "DC",
		"power_charger": "60"
	},
	{
		"name": "Estación de Servicio Enel X Station - 11",
		"region": "Metropolitana",
		"municipality": "Pudahuel",
		"address": "Av. Americo Vespucio 1289",
		"latitude": "-3.342.819",
		"longitude": "-7.078.205",
		"power_station": "60",
		"connector": "CHAdeMO",
		"curret": "DC",
		"power_charger": "50"
	},
	{
		"name": "Estación de Servicio Enel X Station - 12",
		"region": "Metropolitana",
		"municipality": "Pudahuel",
		"address": "Av. Americo Vespucio 1289",
		"latitude": "-3.342.819",
		"longitude": "-7.078.205",
		"power_station": "60",
		"connector": "Combinado Tipo 2",
		"curret": "DC",
		"power_charger": "60"
	},
	{
		"name": "Estación de Servicio Enel X Station - 12",
		"region": "Metropolitana",
		"municipality": "Pudahuel",
		"address": "Av. Americo Vespucio 1289",
		"latitude": "-3.342.819",
		"longitude": "-7.078.205",
		"power_station": "60",
		"connector": "CHAdeMO",
		"curret": "DC",
		"power_charger": "50"
	},
	{
		"name": "Estación de Servicio Enel X Station - 13",
		"region": "Metropolitana",
		"municipality": "Pudahuel",
		"address": "Av. Americo Vespucio 1289",
		"latitude": "-3.342.819",
		"longitude": "-7.078.205",
		"power_station": "150",
		"connector": "CHAdeMO",
		"curret": "DC",
		"power_charger": "50"
	},
	{
		"name": "Estación de Servicio Enel X Station - 13",
		"region": "Metropolitana",
		"municipality": "Pudahuel",
		"address": "Av. Americo Vespucio 1289",
		"latitude": "-3.342.819",
		"longitude": "-7.078.205",
		"power_station": "150",
		"connector": "Combinado Tipo 2",
		"curret": "DC",
		"power_charger": "150"
	},
	{
		"name": "Estación de Servicio Enel X Station - 2",
		"region": "Metropolitana",
		"municipality": "Pudahuel",
		"address": "Av. Americo Vespucio 1289",
		"latitude": "-3.342.819",
		"longitude": "-7.078.205",
		"power_station": "22",
		"connector": "Conector Tipo 2",
		"curret": "AC",
		"power_charger": "22"
	},
	{
		"name": "Estación de Servicio Enel X Station - 3",
		"region": "Metropolitana",
		"municipality": "Pudahuel",
		"address": "Av. Americo Vespucio 1289",
		"latitude": "-3.342.819",
		"longitude": "-7.078.205",
		"power_station": "22",
		"connector": "Conector Tipo 2",
		"curret": "AC",
		"power_charger": "22"
	},
	{
		"name": "Estación de Servicio Enel X Station - 4",
		"region": "Metropolitana",
		"municipality": "Pudahuel",
		"address": "Av. Americo Vespucio 1289",
		"latitude": "-3.342.819",
		"longitude": "-7.078.205",
		"power_station": "150",
		"connector": "GB/T-DC",
		"curret": "DC",
		"power_charger": "150"
	},
	{
		"name": "Estación de Servicio Enel X Station - 4",
		"region": "Metropolitana",
		"municipality": "Pudahuel",
		"address": "Av. Americo Vespucio 1289",
		"latitude": "-3.342.819",
		"longitude": "-7.078.205",
		"power_station": "150",
		"connector": "GB/T-DC",
		"curret": "DC",
		"power_charger": "150"
	},
	{
		"name": "Estación de Servicio Enel X Station - 5",
		"region": "Metropolitana",
		"municipality": "Pudahuel",
		"address": "Av. Americo Vespucio 1289",
		"latitude": "-3.342.819",
		"longitude": "-7.078.205",
		"power_station": "60",
		"connector": "Combinado Tipo 2",
		"curret": "DC",
		"power_charger": "60"
	},
	{
		"name": "Estación de Servicio Enel X Station - 5",
		"region": "Metropolitana",
		"municipality": "Pudahuel",
		"address": "Av. Americo Vespucio 1289",
		"latitude": "-3.342.819",
		"longitude": "-7.078.205",
		"power_station": "60",
		"connector": "CHAdeMO",
		"curret": "DC",
		"power_charger": "50"
	},
	{
		"name": "Estación de Servicio Enel X Station - 6",
		"region": "Metropolitana",
		"municipality": "Pudahuel",
		"address": "Av. Americo Vespucio 1289",
		"latitude": "-3.342.819",
		"longitude": "-7.078.205",
		"power_station": "60",
		"connector": "Combinado Tipo 2",
		"curret": "DC",
		"power_charger": "60"
	},
	{
		"name": "Estación de Servicio Enel X Station - 6",
		"region": "Metropolitana",
		"municipality": "Pudahuel",
		"address": "Av. Americo Vespucio 1289",
		"latitude": "-3.342.819",
		"longitude": "-7.078.205",
		"power_station": "60",
		"connector": "CHAdeMO",
		"curret": "DC",
		"power_charger": "50"
	},
	{
		"name": "Estación de Servicio Enel X Station - 7",
		"region": "Metropolitana",
		"municipality": "Pudahuel",
		"address": "Av. Americo Vespucio 1289",
		"latitude": "-3.342.819",
		"longitude": "-7.078.205",
		"power_station": "60",
		"connector": "Combinado Tipo 2",
		"curret": "DC",
		"power_charger": "60"
	},
	{
		"name": "Estación de Servicio Enel X Station - 7",
		"region": "Metropolitana",
		"municipality": "Pudahuel",
		"address": "Av. Americo Vespucio 1289",
		"latitude": "-3.342.819",
		"longitude": "-7.078.205",
		"power_station": "60",
		"connector": "CHAdeMO",
		"curret": "DC",
		"power_charger": "50"
	},
	{
		"name": "Estación de Servicio Enel X Station - 8",
		"region": "Metropolitana",
		"municipality": "Pudahuel",
		"address": "Av. Americo Vespucio 1289",
		"latitude": "-3.342.819",
		"longitude": "-7.078.205",
		"power_station": "60",
		"connector": "Combinado Tipo 2",
		"curret": "DC",
		"power_charger": "60"
	},
	{
		"name": "Estación de Servicio Enel X Station - 8",
		"region": "Metropolitana",
		"municipality": "Pudahuel",
		"address": "Av. Americo Vespucio 1289",
		"latitude": "-3.342.819",
		"longitude": "-7.078.205",
		"power_station": "60",
		"connector": "CHAdeMO",
		"curret": "DC",
		"power_charger": "50"
	},
	{
		"name": "Estación de Servicio Enel X Station - 9",
		"region": "Metropolitana",
		"municipality": "Pudahuel",
		"address": "Av. Americo Vespucio 1289",
		"latitude": "-3.342.819",
		"longitude": "-7.078.205",
		"power_station": "60",
		"connector": "Combinado Tipo 2",
		"curret": "DC",
		"power_charger": "60"
	},
	{
		"name": "Estación de Servicio Enel X Station - 9",
		"region": "Metropolitana",
		"municipality": "Pudahuel",
		"address": "Av. Americo Vespucio 1289",
		"latitude": "-3.342.819",
		"longitude": "-7.078.205",
		"power_station": "60",
		"connector": "CHAdeMO",
		"curret": "DC",
		"power_charger": "50"
	},
	{
		"name": "La Castellana Esquina Apoquindo - 1",
		"region": "Metropolitana",
		"municipality": "Las Condes",
		"address": "La Castellana Sur s/n",
		"latitude": "-3.341.191",
		"longitude": "-7.057.688",
		"power_station": "45",
		"connector": "Conector Tipo 2",
		"curret": "AC",
		"power_charger": "22"
	},
	{
		"name": "La Castellana Esquina Apoquindo - 1",
		"region": "Metropolitana",
		"municipality": "Las Condes",
		"address": "La Castellana Sur s/n",
		"latitude": "-3.341.191",
		"longitude": "-7.057.688",
		"power_station": "45",
		"connector": "Conector Tipo 2",
		"curret": "AC",
		"power_charger": "22"
	},
	{
		"name": "Mar de los Sargazos con Rosario Sur - 1",
		"region": "Metropolitana",
		"municipality": "Las Condes",
		"address": "Mar de los Sargazos S/N",
		"latitude": "-3.341.039",
		"longitude": "-7.056.998",
		"power_station": "45",
		"connector": "Conector Tipo 2",
		"curret": "AC",
		"power_charger": "22"
	},
	{
		"name": "Mar de los Sargazos con Rosario Sur - 1",
		"region": "Metropolitana",
		"municipality": "Las Condes",
		"address": "Mar de los Sargazos S/N",
		"latitude": "-3.341.039",
		"longitude": "-7.056.998",
		"power_station": "45",
		"connector": "Conector Tipo 2",
		"curret": "AC",
		"power_charger": "22"
	},
	{
		"name": "Municipalidad de Pucón - 1",
		"region": "La Araucanía",
		"municipality": "Pucón",
		"address": "Palguin Esq. O'Higgins 415",
		"latitude": "-3.927.614",
		"longitude": "-7.197.335",
		"power_station": "44",
		"connector": "Conector Tipo 2",
		"curret": "AC",
		"power_charger": "22"
	},
	{
		"name": "Municipalidad de Pucón - 1",
		"region": "La Araucanía",
		"municipality": "Pucón",
		"address": "Palguin Esq. O'Higgins 415",
		"latitude": "-3.927.614",
		"longitude": "-7.197.335",
		"power_station": "44",
		"connector": "Conector Tipo 2",
		"curret": "AC",
		"power_charger": "22"
	},
	{
		"name": "Municipalidad de San Pedro de la Paz - 1",
		"region": "Biobío",
		"municipality": "San Pedro de la Paz",
		"address": "Los Acacios 43",
		"latitude": "-3.684.156",
		"longitude": "-7.310.282",
		"power_station": "44",
		"connector": "Conector Tipo 2",
		"curret": "AC",
		"power_charger": "22"
	},
	{
		"name": "Municipalidad de San Pedro de la Paz - 1",
		"region": "Biobío",
		"municipality": "San Pedro de la Paz",
		"address": "Los Acacios 43",
		"latitude": "-3.684.156",
		"longitude": "-7.310.282",
		"power_station": "44",
		"connector": "Conector Tipo 2",
		"curret": "AC",
		"power_charger": "22"
	},
	{
		"name": "Municipalidad de Vitacura - 1",
		"region": "Metropolitana",
		"municipality": "Vitacura",
		"address": "Bicentenario 3800",
		"latitude": "-3.339.938",
		"longitude": "-7.060.154",
		"power_station": "14",
		"connector": "Conector Tipo 2",
		"curret": "AC",
		"power_charger": "7"
	},
	{
		"name": "Municipalidad de Vitacura - 1",
		"region": "Metropolitana",
		"municipality": "Vitacura",
		"address": "Bicentenario 3800",
		"latitude": "-3.339.938",
		"longitude": "-7.060.154",
		"power_station": "14",
		"connector": "Conector Tipo 2",
		"curret": "AC",
		"power_charger": "7"
	},
	{
		"name": "Municipalidad de Vitacura - 2",
		"region": "Metropolitana",
		"municipality": "Vitacura",
		"address": "Bicentenario 3800",
		"latitude": "-3.339.938",
		"longitude": "-7.060.154",
		"power_station": "14",
		"connector": "Conector Tipo 2",
		"curret": "AC",
		"power_charger": "7"
	},
	{
		"name": "Municipalidad de Vitacura - 2",
		"region": "Metropolitana",
		"municipality": "Vitacura",
		"address": "Bicentenario 3800",
		"latitude": "-3.339.938",
		"longitude": "-7.060.154",
		"power_station": "14",
		"connector": "Conector Tipo 2",
		"curret": "AC",
		"power_charger": "7"
	},
	{
		"name": "Presidente Riesco con Manquehue Norte - 1",
		"region": "Metropolitana",
		"municipality": "Las Condes",
		"address": "Avenida Presidente Riesco s/n",
		"latitude": "-3.340.086",
		"longitude": "-7.056.706",
		"power_station": "45",
		"connector": "Conector Tipo 2",
		"curret": "AC",
		"power_charger": "22"
	},
	{
		"name": "Presidente Riesco con Manquehue Norte - 1",
		"region": "Metropolitana",
		"municipality": "Las Condes",
		"address": "Avenida Presidente Riesco s/n",
		"latitude": "-3.340.086",
		"longitude": "-7.056.706",
		"power_station": "45",
		"connector": "Conector Tipo 2",
		"curret": "AC",
		"power_charger": "22"
	},
	{
		"name": "Presidente Riesco Esquina Asturias - 1",
		"region": "Metropolitana",
		"municipality": "Las Condes",
		"address": "Avenida Presidente Errazuriz s/n",
		"latitude": "-3.341.885",
		"longitude": "-705.837",
		"power_station": "45",
		"connector": "Conector Tipo 2",
		"curret": "AC",
		"power_charger": "22"
	},
	{
		"name": "Presidente Riesco Esquina Asturias - 1",
		"region": "Metropolitana",
		"municipality": "Las Condes",
		"address": "Avenida Presidente Errazuriz s/n",
		"latitude": "-3.341.885",
		"longitude": "-705.837",
		"power_station": "45",
		"connector": "Conector Tipo 2",
		"curret": "AC",
		"power_charger": "22"
	},
	{
		"name": "Proy. Instalación Cargadores Eléct. Hotel Eurotel - 1",
		"region": "Metropolitana",
		"municipality": "Providencia",
		"address": "Guardia Vieja 285",
		"latitude": "-334.249",
		"longitude": "-706.098",
		"power_station": "22",
		"connector": "Conector Tipo 2",
		"curret": "AC",
		"power_charger": "22"
	},
	{
		"name": "Proy. Instalación Cargadores Eléct. Hotel Eurotel - 2",
		"region": "Metropolitana",
		"municipality": "Providencia",
		"address": "Guardia Vieja 285",
		"latitude": "-334.249",
		"longitude": "-706.098",
		"power_station": "22",
		"connector": "Conector Tipo 2",
		"curret": "AC",
		"power_charger": "22"
	},
	{
		"name": "Proyecto Cargadores VE Hotel Pettra - 1",
		"region": "Metropolitana",
		"municipality": "Lo Barnechea",
		"address": "Comandante Malbec 12851",
		"latitude": "-3.335.971",
		"longitude": "-7.051.527",
		"power_station": "22",
		"connector": "Conector Tipo 2",
		"curret": "AC",
		"power_charger": "22"
	},
	{
		"name": "Proyecto Cargadores VE Hotel Pettra - 2",
		"region": "Metropolitana",
		"municipality": "Lo Barnechea",
		"address": "Comandante Malbec 12851",
		"latitude": "-3.335.971",
		"longitude": "-7.051.527",
		"power_station": "22",
		"connector": "Conector Tipo 2",
		"curret": "AC",
		"power_charger": "22"
	},
	{
		"name": "Proyecto Cargadores VE Hotel Regal Pacific - 1",
		"region": "Metropolitana",
		"municipality": "Las Condes",
		"address": "Avenida Apoquindo 5680",
		"latitude": "-3.340.941",
		"longitude": "-7.057.111",
		"power_station": "22",
		"connector": "Conector Tipo 2",
		"curret": "AC",
		"power_charger": "22"
	},
	{
		"name": "Proyecto Cargadores VE Hotel Regal Pacific - 2",
		"region": "Metropolitana",
		"municipality": "Las Condes",
		"address": "Avenida Apoquindo 5680",
		"latitude": "-3.340.941",
		"longitude": "-7.057.111",
		"power_station": "22",
		"connector": "Conector Tipo 2",
		"curret": "AC",
		"power_charger": "22"
	},
	{
		"name": "Proyecto Cargadores VE Hotel Ritz Carlton - 1",
		"region": "Metropolitana",
		"municipality": "Las Condes",
		"address": "El Alcalde 15",
		"latitude": "-334.159",
		"longitude": "-7.059.524",
		"power_station": "22",
		"connector": "Conector Tipo 2",
		"curret": "AC",
		"power_charger": "22"
	},
	{
		"name": "Proyecto Cargadores VE Hotel Ritz Carlton - 2",
		"region": "Metropolitana",
		"municipality": "Las Condes",
		"address": "El Alcalde 15",
		"latitude": "-334.159",
		"longitude": "-7.059.524",
		"power_station": "22",
		"connector": "Conector Tipo 2",
		"curret": "AC",
		"power_charger": "22"
	},
	{
		"name": "Proyecto Cargadores VE Hotel Torre Mayor 25 - 1",
		"region": "Metropolitana",
		"municipality": "Providencia",
		"address": "Avenida Ricardo Lyon 25",
		"latitude": "-3.342.198",
		"longitude": "-7.060.989",
		"power_station": "22",
		"connector": "Conector Tipo 2",
		"curret": "AC",
		"power_charger": "22"
	},
	{
		"name": "Proyecto Cargadores VE Hotel Torre Mayor 25 - 2",
		"region": "Metropolitana",
		"municipality": "Providencia",
		"address": "Avenida Ricardo Lyon 25",
		"latitude": "-3.342.198",
		"longitude": "-7.060.989",
		"power_station": "22",
		"connector": "Conector Tipo 2",
		"curret": "AC",
		"power_charger": "22"
	},
	{
		"name": "Proyecto Cargadores VE Stripcenter Los Trapenses - 1",
		"region": "Metropolitana",
		"municipality": "Lo Barnechea",
		"address": "Camino Los Trapenses 3515",
		"latitude": "-3.334.331",
		"longitude": "-7.054.444",
		"power_station": "44",
		"connector": "Conector Tipo 2",
		"curret": "AC",
		"power_charger": "22"
	},
	{
		"name": "Proyecto Cargadores VE Stripcenter Los Trapenses - 1",
		"region": "Metropolitana",
		"municipality": "Lo Barnechea",
		"address": "Camino Los Trapenses 3515",
		"latitude": "-3.334.331",
		"longitude": "-7.054.444",
		"power_station": "44",
		"connector": "Conector Tipo 2",
		"curret": "AC",
		"power_charger": "22"
	},
	{
		"name": "Proyecto CE Hotel Icon - 1",
		"region": "Metropolitana",
		"municipality": "Las Condes",
		"address": "Alonso de Córdova 6050",
		"latitude": "-3.340.788",
		"longitude": "-7.056.829",
		"power_station": "22",
		"connector": "Conector Tipo 2",
		"curret": "AC",
		"power_charger": "22"
	},
	{
		"name": "Proyecto CE Hotel Icon - 2",
		"region": "Metropolitana",
		"municipality": "Las Condes",
		"address": "Alonso de Córdova 6050",
		"latitude": "-3.340.788",
		"longitude": "-7.056.829",
		"power_station": "22",
		"connector": "Conector Tipo 2",
		"curret": "AC",
		"power_charger": "22"
	},
	{
		"name": "Proyecto CE Hotel Torremayor 322 - 1",
		"region": "Metropolitana",
		"municipality": "Providencia",
		"address": "Avenida Ricardo Lyon 322",
		"latitude": "-334.246",
		"longitude": "-706.085",
		"power_station": "22",
		"connector": "Conector Tipo 2",
		"curret": "AC",
		"power_charger": "22"
	},
	{
		"name": "Proyecto CE Hotel Torremayor 322 - 2",
		"region": "Metropolitana",
		"municipality": "Providencia",
		"address": "Avenida Ricardo Lyon 322",
		"latitude": "-334.246",
		"longitude": "-706.085",
		"power_station": "22",
		"connector": "Conector Tipo 2",
		"curret": "AC",
		"power_charger": "22"
	},
	{
		"name": "Proyecto Inst. Cargadores Elect. Hotel Sheraton - 1",
		"region": "Metropolitana",
		"municipality": "Providencia",
		"address": "Avenida Santa Maria 1742",
		"latitude": "-334.219",
		"longitude": "-7.062.115",
		"power_station": "22",
		"connector": "Conector Tipo 2",
		"curret": "AC",
		"power_charger": "22"
	},
	{
		"name": "Proyecto Inst. Cargadores Elect. Hotel Sheraton - 2",
		"region": "Metropolitana",
		"municipality": "Providencia",
		"address": "Avenida Santa Maria 1742",
		"latitude": "-334.219",
		"longitude": "-7.062.115",
		"power_station": "22",
		"connector": "Conector Tipo 2",
		"curret": "AC",
		"power_charger": "22"
	},
	{
		"name": "SABA Plaza de Armas 1 - 1",
		"region": "Metropolitana",
		"municipality": "Santiago",
		"address": "21 de Mayo 576",
		"latitude": "-3.343.628",
		"longitude": "-7.065.014",
		"power_station": "7",
		"connector": "Conector Tipo 1",
		"curret": "AC",
		"power_charger": "7"
	},
	{
		"name": "SABA Plaza de Armas 1 - 1",
		"region": "Metropolitana",
		"municipality": "Santiago",
		"address": "21 de Mayo 576",
		"latitude": "-3.343.628",
		"longitude": "-7.065.014",
		"power_station": "7",
		"connector": "Conector Tipo 2",
		"curret": "AC",
		"power_charger": "7"
	},
	{
		"name": "SABA Plaza de Armas 1 - 2",
		"region": "Metropolitana",
		"municipality": "Santiago",
		"address": "21 de Mayo 576",
		"latitude": "-3.343.628",
		"longitude": "-7.065.014",
		"power_station": "7",
		"connector": "Conector Tipo 2",
		"curret": "AC",
		"power_charger": "7"
	},
	{
		"name": "SABA Plaza de Armas 1 - 2",
		"region": "Metropolitana",
		"municipality": "Santiago",
		"address": "21 de Mayo 576",
		"latitude": "-3.343.628",
		"longitude": "-7.065.014",
		"power_station": "7",
		"connector": "Conector Tipo 2",
		"curret": "AC",
		"power_charger": "7"
	},
	{
		"name": "Enel X - Sodimac Quilín - 1",
		"region": "Metropolitana",
		"municipality": "Penalolén",
		"address": "altos del parque sur 5800",
		"latitude": "-334.987",
		"longitude": "-7.055.529",
		"power_station": "22",
		"connector": "Conector Tipo 2",
		"curret": "AC",
		"power_charger": "11"
	},
	{
		"name": "Enel X - Sodimac Quilín - 1",
		"region": "Metropolitana",
		"municipality": "Penalolén",
		"address": "altos del parque sur 5800",
		"latitude": "-334.987",
		"longitude": "-7.055.529",
		"power_station": "22",
		"connector": "Conector Tipo 2",
		"curret": "AC",
		"power_charger": "11"
	},
	{
		"name": "Enel X - Sodimac Quilín - 2",
		"region": "Metropolitana",
		"municipality": "Penalolén",
		"address": "altos del parque sur 5800",
		"latitude": "-334.987",
		"longitude": "-7.055.529",
		"power_station": "22",
		"connector": "Conector Tipo 2",
		"curret": "AC",
		"power_charger": "11"
	},
	{
		"name": "Enel X - Sodimac Quilín - 2",
		"region": "Metropolitana",
		"municipality": "Penalolén",
		"address": "altos del parque sur 5800",
		"latitude": "-334.987",
		"longitude": "-7.055.529",
		"power_station": "22",
		"connector": "Conector Tipo 2",
		"curret": "AC",
		"power_charger": "11"
	},
	{
		"name": "Cargador Electrico Shell Los Dominicos - 1",
		"region": "Metropolitana",
		"municipality": "Las Condes",
		"address": "Patagonia 75",
		"latitude": "-3.340.918",
		"longitude": "-7.054.478",
		"power_station": "50",
		"connector": "CHAdeMO",
		"curret": "DC",
		"power_charger": "50"
	},
	{
		"name": "Cargador Electrico Shell Los Dominicos - 1",
		"region": "Metropolitana",
		"municipality": "Las Condes",
		"address": "Patagonia 75",
		"latitude": "-3.340.918",
		"longitude": "-7.054.478",
		"power_station": "50",
		"connector": "Combinado Tipo 2",
		"curret": "DC",
		"power_charger": "50"
	},
	{
		"name": "Cargador Electrico Shell Los Dominicos - 1",
		"region": "Metropolitana",
		"municipality": "Las Condes",
		"address": "Patagonia 75",
		"latitude": "-3.340.918",
		"longitude": "-7.054.478",
		"power_station": "50",
		"connector": "Conector Tipo 2",
		"curret": "AC",
		"power_charger": "43"
	},
	{
		"name": "EDS Shell Parral - 1",
		"region": "Maule",
		"municipality": "Parral",
		"address": "Ruta 5 sur Km 344",
		"latitude": "-3.617.881",
		"longitude": "-7.182.341",
		"power_station": "98",
		"connector": "Conector Tipo 2",
		"curret": "AC",
		"power_charger": "43"
	},
	{
		"name": "EDS Shell Parral - 1",
		"region": "Maule",
		"municipality": "Parral",
		"address": "Ruta 5 sur Km 344",
		"latitude": "-3.617.881",
		"longitude": "-7.182.341",
		"power_station": "98",
		"connector": "CHAdeMO",
		"curret": "DC",
		"power_charger": "50"
	},
	{
		"name": "EDS Shell Parral - 1",
		"region": "Maule",
		"municipality": "Parral",
		"address": "Ruta 5 sur Km 344",
		"latitude": "-3.617.881",
		"longitude": "-7.182.341",
		"power_station": "98",
		"connector": "Combinado Tipo 2",
		"curret": "DC",
		"power_charger": "50"
	},
	{
		"name": "ELECTROLINERA SHELL LOS TRAPENSES - 1",
		"region": "Metropolitana",
		"municipality": "Lo Barnechea",
		"address": "Camino Los Trapenses 3385",
		"latitude": "-3.334.485",
		"longitude": "-7.054.589",
		"power_station": "50",
		"connector": "CHAdeMO",
		"curret": "DC",
		"power_charger": "50"
	},
	{
		"name": "ELECTROLINERA SHELL LOS TRAPENSES - 1",
		"region": "Metropolitana",
		"municipality": "Lo Barnechea",
		"address": "Camino Los Trapenses 3385",
		"latitude": "-3.334.485",
		"longitude": "-7.054.589",
		"power_station": "50",
		"connector": "Combinado Tipo 2",
		"curret": "DC",
		"power_charger": "50"
	},
	{
		"name": "ELECTROLINERA SHELL LOS TRAPENSES - 1",
		"region": "Metropolitana",
		"municipality": "Lo Barnechea",
		"address": "Camino Los Trapenses 3385",
		"latitude": "-3.334.485",
		"longitude": "-7.054.589",
		"power_station": "50",
		"connector": "Conector Tipo 2",
		"curret": "AC",
		"power_charger": "43"
	},
	{
		"name": "ELECTROLINERA SHELL RIO MAIPO PONIENTE - 1",
		"region": "Metropolitana",
		"municipality": "San Bernardo",
		"address": "Autopista Ruta 5 Sur Kilometro 29 29",
		"latitude": "-3.368.104",
		"longitude": "-7.072.634",
		"power_station": "50",
		"connector": "Conector Tipo 2",
		"curret": "AC",
		"power_charger": "43"
	},
	{
		"name": "ELECTROLINERA SHELL RIO MAIPO PONIENTE - 1",
		"region": "Metropolitana",
		"municipality": "San Bernardo",
		"address": "Autopista Ruta 5 Sur Kilometro 29 29",
		"latitude": "-3.368.104",
		"longitude": "-7.072.634",
		"power_station": "50",
		"connector": "CHAdeMO",
		"curret": "DC",
		"power_charger": "50"
	},
	{
		"name": "ELECTROLINERA SHELL RIO MAIPO PONIENTE - 1",
		"region": "Metropolitana",
		"municipality": "San Bernardo",
		"address": "Autopista Ruta 5 Sur Kilometro 29 29",
		"latitude": "-3.368.104",
		"longitude": "-7.072.634",
		"power_station": "50",
		"connector": "Combinado Tipo 2",
		"curret": "DC",
		"power_charger": "50"
	},
	{
		"name": "ELECTROLINERA SHELL SAN FRANCISCO DE MOSTAZAL - 1",
		"region": "Libertador Bernardo OHiggins",
		"municipality": "Mostazal",
		"address": "PANAMERICANA SUR KM 69",
		"latitude": "1 N/A",
		"longitude": "-3.397.138",
		"power_station": "-7.070.762",
		"connector": "67",
		"curret": "CHAdeMO",
		"power_charger": "DC"
	},
	{
		"name": "ELECTROLINERA SHELL SAN FRANCISCO DE MOSTAZAL - 1",
		"region": "Libertador Bernardo OHiggins",
		"municipality": "Mostazal",
		"address": "PANAMERICANA SUR KM 69",
		"latitude": "1 N/A",
		"longitude": "-3.397.138",
		"power_station": "-7.070.762",
		"connector": "67",
		"curret": "Combinado Tipo 2",
		"power_charger": "DC"
	},
	{
		"name": "ELECTROLINERA SHELL SAN FRANCISCO DE MOSTAZAL - 1",
		"region": "Libertador Bernardo OHiggins",
		"municipality": "Mostazal",
		"address": "PANAMERICANA SUR KM 69",
		"latitude": "1 N/A",
		"longitude": "-3.397.138",
		"power_station": "-7.070.762",
		"connector": "67",
		"curret": "Conector Tipo 2",
		"power_charger": "AC"
	},
	{
		"name": "ELECTROLINERA SHELL TENO - 1",
		"region": "Maule",
		"municipality": "Teno",
		"address": "PANAMERICANA SUR 175",
		"latitude": "-3.487.642",
		"longitude": "-7.114.431",
		"power_station": "50",
		"connector": "Conector Tipo 2",
		"curret": "AC",
		"power_charger": "43"
	},
	{
		"name": "ELECTROLINERA SHELL TENO - 1",
		"region": "Maule",
		"municipality": "Teno",
		"address": "PANAMERICANA SUR 175",
		"latitude": "-3.487.642",
		"longitude": "-7.114.431",
		"power_station": "50",
		"connector": "CHAdeMO",
		"curret": "DC",
		"power_charger": "50"
	},
	{
		"name": "ELECTROLINERA SHELL TENO - 1",
		"region": "Maule",
		"municipality": "Teno",
		"address": "PANAMERICANA SUR 175",
		"latitude": "-3.487.642",
		"longitude": "-7.114.431",
		"power_station": "50",
		"connector": "Combinado Tipo 2",
		"curret": "DC",
		"power_charger": "50"
	},
	{
		"name": "ENEX SHELL HIJUELAS - 1",
		"region": "Valparaíso",
		"municipality": "Hijuelas",
		"address": "panamericana norte km 108",
		"latitude": "-3.279.829",
		"longitude": "-7.115.876",
		"power_station": "50",
		"connector": "CHAdeMO",
		"curret": "DC",
		"power_charger": "50"
	},
	{
		"name": "ENEX SHELL HIJUELAS - 1",
		"region": "Valparaíso",
		"municipality": "Hijuelas",
		"address": "panamericana norte km 108",
		"latitude": "-3.279.829",
		"longitude": "-7.115.876",
		"power_station": "50",
		"connector": "Combinado Tipo 2",
		"curret": "DC",
		"power_charger": "50"
	},
	{
		"name": "Inst. Elec. Cargador de Vehiculos Eléctricos E/S M - 1",
		"region": "Metropolitana",
		"municipality": "San Bernardo",
		"address": "AVENIDA PRESIDENTE JORGE ALESSANDRI 26517",
		"latitude": "-3.368.606",
		"longitude": "-7.072.606",
		"power_station": "98",
		"connector": "Conector Tipo 2",
		"curret": "AC",
		"power_charger": "43"
	},
	{
		"name": "Inst. Elec. Cargador de Vehiculos Eléctricos E/S M - 1",
		"region": "Metropolitana",
		"municipality": "San Bernardo",
		"address": "AVENIDA PRESIDENTE JORGE ALESSANDRI 26517",
		"latitude": "-3.368.606",
		"longitude": "-7.072.606",
		"power_station": "98",
		"connector": "Combinado Tipo 2",
		"curret": "DC",
		"power_charger": "50"
	},
	{
		"name": "Inst. Elec. Cargador de Vehiculos Eléctricos E/S M - 1",
		"region": "Metropolitana",
		"municipality": "San Bernardo",
		"address": "AVENIDA PRESIDENTE JORGE ALESSANDRI 26517",
		"latitude": "-3.368.606",
		"longitude": "-7.072.606",
		"power_station": "98",
		"connector": "CHAdeMO",
		"curret": "DC",
		"power_charger": "50"
	},
	{
		"name": "Instalacion electrica Electrolinera - 1",
		"region": "Maule",
		"municipality": "San Rafael",
		"address": "RUTA 5 SUR KM 239.5 s/n",
		"latitude": "-3.533.077",
		"longitude": "-7.155.273",
		"power_station": "98",
		"connector": "CHAdeMO",
		"curret": "DC",
		"power_charger": "50"
	},
	{
		"name": "Instalacion electrica Electrolinera - 1",
		"region": "Maule",
		"municipality": "San Rafael",
		"address": "RUTA 5 SUR KM 239.5 s/n",
		"latitude": "-3.533.077",
		"longitude": "-7.155.273",
		"power_station": "98",
		"connector": "Combinado Tipo 2",
		"curret": "DC",
		"power_charger": "50"
	},
	{
		"name": "Instalacion electrica Electrolinera - 1",
		"region": "Maule",
		"municipality": "San Rafael",
		"address": "RUTA 5 SUR KM 239.5 s/n",
		"latitude": "-3.533.077",
		"longitude": "-7.155.273",
		"power_station": "98",
		"connector": "Conector Tipo 2",
		"curret": "AC",
		"power_charger": "43"
	},
	{
		"name": "SAVE ESTACION DE SERVICIO ENEX CONCON - 1",
		"region": "Valparaíso",
		"municipality": "Concón",
		"address": "San Jose Maria Escriva de Balaguer 861",
		"latitude": "-329.507",
		"longitude": "-715.377",
		"power_station": "98",
		"connector": "Conector Tipo 2",
		"curret": "AC",
		"power_charger": "43"
	},
	{
		"name": "SAVE ESTACION DE SERVICIO ENEX CONCON - 1",
		"region": "Valparaíso",
		"municipality": "Concón",
		"address": "San Jose Maria Escriva de Balaguer 861",
		"latitude": "-329.507",
		"longitude": "-715.377",
		"power_station": "98",
		"connector": "CHAdeMO",
		"curret": "DC",
		"power_charger": "50"
	},
	{
		"name": "SAVE ESTACION DE SERVICIO ENEX CONCON - 1",
		"region": "Valparaíso",
		"municipality": "Concón",
		"address": "San Jose Maria Escriva de Balaguer 861",
		"latitude": "-329.507",
		"longitude": "-715.377",
		"power_station": "98",
		"connector": "Combinado Tipo 2",
		"curret": "DC",
		"power_charger": "50"
	},
	{
		"name": "Shell Autopista Central - 1",
		"region": "Metropolitana",
		"municipality": "San Bernardo",
		"address": "Ruta 5 sur KM 16.4 s/n",
		"latitude": "-3.358.058",
		"longitude": "-7.071.387",
		"power_station": "94",
		"connector": "Combinado Tipo 2",
		"curret": "DC",
		"power_charger": "50"
	},
	{
		"name": "Shell Autopista Central - 1",
		"region": "Metropolitana",
		"municipality": "San Bernardo",
		"address": "Ruta 5 sur KM 16.4 s/n",
		"latitude": "-3.358.058",
		"longitude": "-7.071.387",
		"power_station": "94",
		"connector": "CHAdeMO",
		"curret": "DC",
		"power_charger": "50"
	},
	{
		"name": "Shell Autopista Central - 1",
		"region": "Metropolitana",
		"municipality": "San Bernardo",
		"address": "Ruta 5 sur KM 16.4 s/n",
		"latitude": "-3.358.058",
		"longitude": "-7.071.387",
		"power_station": "94",
		"connector": "Conector Tipo 2",
		"curret": "AC",
		"power_charger": "43"
	},
	{
		"name": "Cargador Público ENGIE",
		"region": "Metropolitana",
		"municipality": "Las Condes",
		"address": "Presidente Riesco con Rosario Norte (Av. Pdte. Riesco #5810)",
		"latitude": "-3.340.388",
		"longitude": "-7.057.396",
		"power_station": "44",
		"connector": "Conector Tipo 2",
		"curret": "AC",
		"power_charger": "44"
	},
	{
		"name": "Cargador Público ENGIE",
		"region": "Metropolitana",
		"municipality": "Las Condes",
		"address": "Presidente Riesco con Rosario Norte (Av. Pdte. Riesco #5810)",
		"latitude": "-3.340.388",
		"longitude": "-7.057.396",
		"power_station": "44",
		"connector": "Conector Tipo 2",
		"curret": "AC",
		"power_charger": "44"
	},
	{
		"name": "Centro de Convenciones Stgo - 1",
		"region": "Metropolitana",
		"municipality": "Huechuraba",
		"address": "Avenida El Salto 5000",
		"latitude": "-3.338.515",
		"longitude": "-7.062.257",
		"power_station": "6",
		"connector": "6",
		"curret": "Conector Tipo 1",
		"power_charger": "AC"
	},
	{
		"name": "Centro de Convenciones Stgo - 1",
		"region": "Metropolitana",
		"municipality": "Huechuraba",
		"address": "Avenida El Salto 5000",
		"latitude": "-3.338.515",
		"longitude": "-7.062.257",
		"power_station": "6",
		"connector": "6",
		"curret": "Conector Tipo 2",
		"power_charger": "AC"
	},
	{
		"name": "Estacionamientos EME - 1",
		"region": "Metropolitana",
		"municipality": "Las Condes",
		"address": "Isidora Goyenechea 2939",
		"latitude": "-3.341.422",
		"longitude": "-7.060.025",
		"power_station": "3",
		"connector": "5",
		"curret": "Conector Tipo 1",
		"power_charger": "AC"
	},
	{
		"name": "Estacionamientos EME - 1",
		"region": "Metropolitana",
		"municipality": "Las Condes",
		"address": "Isidora Goyenechea 2939",
		"latitude": "-3.341.422",
		"longitude": "-7.060.025",
		"power_station": "3",
		"connector": "5",
		"curret": "Conector Tipo 2",
		"power_charger": "AC"
	},
	{
		"name": "Estacionamientos EME - 2",
		"region": "Metropolitana",
		"municipality": "Las Condes",
		"address": "Isidora Goyenechea 2939",
		"latitude": "-3.341.422",
		"longitude": "-7.060.025",
		"power_station": "3",
		"connector": "5",
		"curret": "Conector Tipo 1",
		"power_charger": "AC"
	},
	{
		"name": "Estacionamientos EME - 2",
		"region": "Metropolitana",
		"municipality": "Las Condes",
		"address": "Isidora Goyenechea 2939",
		"latitude": "-3.341.422",
		"longitude": "-7.060.025",
		"power_station": "3",
		"connector": "5",
		"curret": "Conector Tipo 2",
		"power_charger": "AC"
	},
	{
		"name": "Open Kennedy - 1",
		"region": "Metropolitana",
		"municipality": "Las Condes",
		"address": "Presidente Kennedy 5601",
		"latitude": "-3.340.118",
		"longitude": "-7.057.539",
		"power_station": "14",
		"connector": "Conector Tipo 2",
		"curret": "AC",
		"power_charger": "7"
	},
	{
		"name": "Open Kennedy - 1",
		"region": "Metropolitana",
		"municipality": "Las Condes",
		"address": "Presidente Kennedy 5601",
		"latitude": "-3.340.118",
		"longitude": "-7.057.539",
		"power_station": "14",
		"connector": "Conector Tipo 2",
		"curret": "AC",
		"power_charger": "7"
	},
	{
		"name": "Open Kennedy - 2",
		"region": "Metropolitana",
		"municipality": "Las Condes",
		"address": "Presidente Kennedy 5601",
		"latitude": "-3.340.118",
		"longitude": "-7.057.539",
		"power_station": "14",
		"connector": "Conector Tipo 2",
		"curret": "AC",
		"power_charger": "7"
	},
	{
		"name": "Open Kennedy - 2",
		"region": "Metropolitana",
		"municipality": "Las Condes",
		"address": "Presidente Kennedy 5601",
		"latitude": "-3.340.118",
		"longitude": "-7.057.539",
		"power_station": "14",
		"connector": "Conector Tipo 2",
		"curret": "AC",
		"power_charger": "7"
	},
	{
		"name": "Open Kennedy - 3",
		"region": "Metropolitana",
		"municipality": "Las Condes",
		"address": "Presidente Kennedy 5601",
		"latitude": "-3.340.118",
		"longitude": "-7.057.539",
		"power_station": "14",
		"connector": "Conector Tipo 2",
		"curret": "AC",
		"power_charger": "7"
	},
	{
		"name": "Open Kennedy - 3",
		"region": "Metropolitana",
		"municipality": "Las Condes",
		"address": "Presidente Kennedy 5601",
		"latitude": "-3.340.118",
		"longitude": "-7.057.539",
		"power_station": "14",
		"connector": "Conector Tipo 2",
		"curret": "AC",
		"power_charger": "7"
	},
	{
		"name": "Hotel Lago Grey - 1",
		"region": "Magallanes y de la Antártica Chilena",
		"municipality": "Torres del Paine",
		"address": "Sector Lago Grey S/N",
		"latitude": "-5.112.257",
		"longitude": "-7.311.596",
		"power_station": "7",
		"connector": "4",
		"curret": "Conector Tipo 1",
		"power_charger": "AC"
	},
	{
		"name": "Hotel Lago Grey - 2",
		"region": "Magallanes y de la Antártica Chilena",
		"municipality": "Torres del Paine",
		"address": "Sector Lago Grey S/N",
		"latitude": "-5.112.257",
		"longitude": "-7.311.596",
		"power_station": "7",
		"connector": "4",
		"curret": "Conector Tipo 1",
		"power_charger": "AC"
	},
	{
		"name": "Hotel Mandarin Oriental ex Hyatt - 1",
		"region": "Metropolitana",
		"municipality": "Las Condes",
		"address": "Kennedy 4601",
		"latitude": "-3.340.395",
		"longitude": "-7.058.281",
		"power_station": "44",
		"connector": "Conector Tipo 2",
		"curret": "AC",
		"power_charger": "22"
	},
	{
		"name": "Hotel Mandarin Oriental ex Hyatt - 1",
		"region": "Metropolitana",
		"municipality": "Las Condes",
		"address": "Kennedy 4601",
		"latitude": "-3.340.395",
		"longitude": "-7.058.281",
		"power_station": "44",
		"connector": "Conector Tipo 2",
		"curret": "AC",
		"power_charger": "22"
	},
	{
		"name": "Hotel Puyehue - 1",
		"region": "Los Lagos",
		"municipality": "Puyehue",
		"address": "Ruta internacional 215 Km 76",
		"latitude": "-4.071.135",
		"longitude": "-7.232.944",
		"power_station": "7",
		"connector": "4",
		"curret": "Conector Tipo 1",
		"power_charger": "AC"
	},
	{
		"name": "Hotel Puyehue - 2",
		"region": "Los Lagos",
		"municipality": "Puyehue",
		"address": "Ruta internacional 215 Km 76",
		"latitude": "-4.071.135",
		"longitude": "-7.232.944",
		"power_station": "7",
		"connector": "4",
		"curret": "Conector Tipo 1",
		"power_charger": "AC"
	},
	{
		"name": "Tanica Oriente - 1",
		"region": "Metropolitana",
		"municipality": "Vitacura",
		"address": "Santa Maria 5888",
		"latitude": "-3.337.966",
		"longitude": "-7.058.436",
		"power_station": "14",
		"connector": "Conector Tipo 2",
		"curret": "AC",
		"power_charger": "7"
	},
	{
		"name": "Tanica Oriente - 1",
		"region": "Metropolitana",
		"municipality": "Vitacura",
		"address": "Santa Maria 5888",
		"latitude": "-3.337.966",
		"longitude": "-7.058.436",
		"power_station": "14",
		"connector": "Conector Tipo 2",
		"curret": "AC",
		"power_charger": "7"
	},
	{
		"name": "TOTTUS FACTORIA - 1",
		"region": "Metropolitana",
		"municipality": "Providencia",
		"address": "AV. FRANCISCO BILBAO 451",
		"latitude": "-334.418",
		"longitude": "-7.062.604",
		"power_station": "22",
		"connector": "Conector Tipo 2",
		"curret": "AC",
		"power_charger": "22"
	},
	{
		"name": "Edificio Deja Vu",
		"region": "Metropolitana",
		"municipality": "Providencia",
		"address": "Miguel claro 275",
		"latitude": "-3.343.204",
		"longitude": "-7.062.044",
		"power_station": "7",
		"connector": "4",
		"curret": "Conector Tipo 2",
		"power_charger": "AC"
	},
	{
		"name": "Edificio Deja Vu",
		"region": "Metropolitana",
		"municipality": "Providencia",
		"address": "Miguel claro 275",
		"latitude": "-3.343.204",
		"longitude": "-7.062.044",
		"power_station": "7",
		"connector": "4",
		"curret": "Conector Tipo 2",
		"power_charger": "AC"
	},
	{
		"name": "Patio Los Militares - 1",
		"region": "Metropolitana",
		"municipality": "Las Condes",
		"address": "los militares 4661",
		"latitude": "-334.121",
		"longitude": "-7.058.118",
		"power_station": "7",
		"connector": "Conector Tipo 1",
		"curret": "AC",
		"power_charger": "7"
	},
	{
		"name": "Patio Los Militares - 2",
		"region": "Metropolitana",
		"municipality": "Las Condes",
		"address": "los militares 4661",
		"latitude": "-334.121",
		"longitude": "-7.058.118",
		"power_station": "7",
		"connector": "Conector Tipo 2",
		"curret": "AC",
		"power_charger": "7"
	},
	{
		"name": "SAVE MALL PLAZA CALAMA - 1",
		"region": "Antofagasta",
		"municipality": "Calama",
		"address": "Av Balmaceda 3242",
		"latitude": "-2.244.874",
		"longitude": "-6.892.074",
		"power_station": "7",
		"connector": "4",
		"curret": "Conector Tipo 2",
		"power_charger": "AC"
	},
	{
		"name": "SAVE MALL PLAZA CALAMA - 2",
		"region": "Antofagasta",
		"municipality": "Calama",
		"address": "Av Balmaceda 3242",
		"latitude": "-2.244.874",
		"longitude": "-6.892.074",
		"power_station": "7",
		"connector": "4",
		"curret": "Conector Tipo 2",
		"power_charger": "AC"
	},
	{
		"name": "Patio Alonso de Cordova - 1",
		"region": "Metropolitana",
		"municipality": "Vitacura",
		"address": "alonso de cordova 3788",
		"latitude": "-3.340.187",
		"longitude": "-7.059.291",
		"power_station": "7",
		"connector": "Conector Tipo 1",
		"curret": "AC",
		"power_charger": "7"
	},
	{
		"name": "Patio Alonso de Cordova - 2",
		"region": "Metropolitana",
		"municipality": "Vitacura",
		"address": "alonso de cordova 3788",
		"latitude": "-3.340.187",
		"longitude": "-7.059.291",
		"power_station": "7",
		"connector": "Conector Tipo 2",
		"curret": "AC",
		"power_charger": "7"
	},
	{
		"name": "Enel X - Shell Laguna Caren - 1",
		"region": "Metropolitana",
		"municipality": "Pudahuel",
		"address": "Ruta 68 Sur KM 18.5",
		"latitude": "-334.398",
		"longitude": "-7.084.116",
		"power_station": "50",
		"connector": "Combinado Tipo 2",
		"curret": "DC",
		"power_charger": "50"
	},
	{
		"name": "Enel X - Shell Laguna Caren - 1",
		"region": "Metropolitana",
		"municipality": "Pudahuel",
		"address": "Ruta 68 Sur KM 18.5",
		"latitude": "-334.398",
		"longitude": "-7.084.116",
		"power_station": "50",
		"connector": "CHAdeMO",
		"curret": "DC",
		"power_charger": "50"
	},
	{
		"name": "Enel X - Shell Laguna Caren - 1",
		"region": "Metropolitana",
		"municipality": "Pudahuel",
		"address": "Ruta 68 Sur KM 18.5",
		"latitude": "-334.398",
		"longitude": "-7.084.116",
		"power_station": "50",
		"connector": "Conector Tipo 2",
		"curret": "AC",
		"power_charger": "43"
	},
	{
		"name": "Centro Parque Araucano - 1",
		"region": "Metropolitana",
		"municipality": "Las Condes",
		"address": "Presidente riesco 5330",
		"latitude": "-3.339.742",
		"longitude": "-7.055.966",
		"power_station": "7",
		"connector": "Conector Tipo 2",
		"curret": "AC",
		"power_charger": "7"
	},
	{
		"name": "Centro Parque Araucano - 2",
		"region": "Metropolitana",
		"municipality": "Las Condes",
		"address": "Presidente riesco 5330",
		"latitude": "-3.339.742",
		"longitude": "-7.055.966",
		"power_station": "7",
		"connector": "Conector Tipo 2",
		"curret": "AC",
		"power_charger": "7"
	},
	{
		"name": "Centro Parque Araucano - 3",
		"region": "Metropolitana",
		"municipality": "Las Condes",
		"address": "Presidente riesco 5330",
		"latitude": "-3.339.742",
		"longitude": "-7.055.966",
		"power_station": "7",
		"connector": "Conector Tipo 2",
		"curret": "AC",
		"power_charger": "7"
	},
	{
		"name": "Centro Parque Araucano - 4",
		"region": "Metropolitana",
		"municipality": "Las Condes",
		"address": "Presidente riesco 5330",
		"latitude": "-3.339.742",
		"longitude": "-7.055.966",
		"power_station": "7",
		"connector": "Conector Tipo 2",
		"curret": "AC",
		"power_charger": "7"
	},
	{
		"name": "Centro Parque Araucano - 5",
		"region": "Metropolitana",
		"municipality": "Las Condes",
		"address": "Presidente riesco 5330",
		"latitude": "-3.339.742",
		"longitude": "-7.055.966",
		"power_station": "7",
		"connector": "Conector Tipo 2",
		"curret": "AC",
		"power_charger": "7"
	},
	{
		"name": "Centro Parque Araucano - 6",
		"region": "Metropolitana",
		"municipality": "Las Condes",
		"address": "Presidente riesco 5330",
		"latitude": "-3.339.742",
		"longitude": "-7.055.966",
		"power_station": "7",
		"connector": "Conector Tipo 2",
		"curret": "AC",
		"power_charger": "7"
	},
	{
		"name": "Centro Parque Araucano - 7",
		"region": "Metropolitana",
		"municipality": "Las Condes",
		"address": "Presidente riesco 5330",
		"latitude": "-3.339.742",
		"longitude": "-7.055.966",
		"power_station": "7",
		"connector": "Conector Tipo 2",
		"curret": "AC",
		"power_charger": "7"
	},
	{
		"name": "Centro Parque Araucano - 8",
		"region": "Metropolitana",
		"municipality": "Las Condes",
		"address": "Presidente riesco 5330",
		"latitude": "-3.339.742",
		"longitude": "-7.055.966",
		"power_station": "7",
		"connector": "Conector Tipo 2",
		"curret": "AC",
		"power_charger": "7"
	},
	{
		"name": "Centro Parque Araucano - 9",
		"region": "Metropolitana",
		"municipality": "Las Condes",
		"address": "Presidente riesco 5330",
		"latitude": "-3.339.742",
		"longitude": "-7.055.966",
		"power_station": "7",
		"connector": "Conector Tipo 1",
		"curret": "AC",
		"power_charger": "7"
	},
	{
		"name": "Mall Barrio Independencia - 1",
		"region": "Metropolitana",
		"municipality": "Independencia",
		"address": "Independencia 565",
		"latitude": "-3.342.463",
		"longitude": "-7.065.481",
		"power_station": "14",
		"connector": "Conector Tipo 1",
		"curret": "AC",
		"power_charger": "7"
	},
	{
		"name": "Mall Barrio Independencia - 1",
		"region": "Metropolitana",
		"municipality": "Independencia",
		"address": "Independencia 565",
		"latitude": "-3.342.463",
		"longitude": "-7.065.481",
		"power_station": "14",
		"connector": "Conector Tipo 2",
		"curret": "AC",
		"power_charger": "7"
	},
	{
		"name": "Mall del Centro - 1",
		"region": "Biobío",
		"municipality": "Concepción",
		"address": "Barros Arana 1068",
		"latitude": "-3.682.469",
		"longitude": "-7.304.527",
		"power_station": "14",
		"connector": "Conector Tipo 2",
		"curret": "AC",
		"power_charger": "7"
	},
	{
		"name": "Mall del Centro - 1",
		"region": "Biobío",
		"municipality": "Concepción",
		"address": "Barros Arana 1068",
		"latitude": "-3.682.469",
		"longitude": "-7.304.527",
		"power_station": "14",
		"connector": "Conector Tipo 1",
		"curret": "AC",
		"power_charger": "7"
	},
	{
		"name": "Boulevard Marina - 1",
		"region": "Valparaíso",
		"municipality": "Vina del Mar",
		"address": "Libertad 1348",
		"latitude": "-3.300.917",
		"longitude": "-715.485",
		"power_station": "14",
		"connector": "Conector Tipo 1",
		"curret": "AC",
		"power_charger": "7"
	},
	{
		"name": "Boulevard Marina - 1",
		"region": "Valparaíso",
		"municipality": "Vina del Mar",
		"address": "Libertad 1348",
		"latitude": "-3.300.917",
		"longitude": "-715.485",
		"power_station": "14",
		"connector": "Conector Tipo 2",
		"curret": "AC",
		"power_charger": "7"
	},
	{
		"name": "Mall Curicó - 1",
		"region": "Maule",
		"municipality": "Curicó",
		"address": "Villota 798",
		"latitude": "-3.498.804",
		"longitude": "-7.124.589",
		"power_station": "44",
		"connector": "Conector Tipo 2",
		"curret": "AC",
		"power_charger": "22"
	},
	{
		"name": "Mall Curicó - 1",
		"region": "Maule",
		"municipality": "Curicó",
		"address": "Villota 798",
		"latitude": "-3.498.804",
		"longitude": "-7.124.589",
		"power_station": "44",
		"connector": "Conector Tipo 2",
		"curret": "AC",
		"power_charger": "22"
	},
	{
		"name": "Mall Marina - 1",
		"region": "Valparaíso",
		"municipality": "Vina del Mar",
		"address": "Libertad 1348",
		"latitude": "-3.300.932",
		"longitude": "-7.154.674",
		"power_station": "14",
		"connector": "Conector Tipo 1",
		"curret": "AC",
		"power_charger": "7"
	},
	{
		"name": "Mall Marina - 1",
		"region": "Valparaíso",
		"municipality": "Vina del Mar",
		"address": "Libertad 1348",
		"latitude": "-3.300.932",
		"longitude": "-7.154.674",
		"power_station": "14",
		"connector": "Conector Tipo 2",
		"curret": "AC",
		"power_charger": "7"
	},
	{
		"name": "SAVE Mall Plaza La Serena - 1",
		"region": "Coquimbo",
		"municipality": "La Serena",
		"address": "alberto solari 1400",
		"latitude": "-2.991.254",
		"longitude": "-7.125.842",
		"power_station": "7",
		"connector": "4",
		"curret": "Conector Tipo 2",
		"power_charger": "AC"
	},
	{
		"name": "SAVE Mall Plaza La Serena - 2",
		"region": "Coquimbo",
		"municipality": "La Serena",
		"address": "alberto solari 1400",
		"latitude": "-2.991.254",
		"longitude": "-7.125.842",
		"power_station": "7",
		"connector": "4",
		"curret": "Conector Tipo 2",
		"power_charger": "AC"
	},
	{
		"name": "PUNTO DE CARGA DOBLE EVBOX MPOE - 1",
		"region": "Metropolitana",
		"municipality": "Cerrillos",
		"address": "Av. Americo Vespucio 1501",
		"latitude": "-33.517",
		"longitude": "-70.717",
		"power_station": "7",
		"connector": "4",
		"curret": "Conector Tipo 1",
		"power_charger": "AC"
	},
	{
		"name": "PUNTO DE CARGA DOBLE EVBOX MPOE - 2",
		"region": "Metropolitana",
		"municipality": "Cerrillos",
		"address": "Av. Americo Vespucio 1501",
		"latitude": "-33.517",
		"longitude": "-70.717",
		"power_station": "7",
		"connector": "4",
		"curret": "Conector Tipo 1",
		"power_charger": "AC"
	},
	{
		"name": "PUNTO DE CARGA DOBLE EVBOX MPOE - 3",
		"region": "Metropolitana",
		"municipality": "Cerrillos",
		"address": "Av. Americo Vespucio 1501",
		"latitude": "-33.517",
		"longitude": "-70.717",
		"power_station": "7",
		"connector": "4",
		"curret": "Conector Tipo 1",
		"power_charger": "AC"
	},
	{
		"name": "PUNTO DE CARGA DOBLE EVBOX MPOE - 4",
		"region": "Metropolitana",
		"municipality": "Cerrillos",
		"address": "Av. Americo Vespucio 1501",
		"latitude": "-33.517",
		"longitude": "-70.717",
		"power_station": "7",
		"connector": "4",
		"curret": "Conector Tipo 1",
		"power_charger": "AC"
	},
	{
		"name": "Mall Sport - 1",
		"region": "Metropolitana",
		"municipality": "Las Condes",
		"address": "Avenida Las Condes 13451",
		"latitude": "-3.337.041",
		"longitude": "-7.050.717",
		"power_station": "6",
		"connector": "6",
		"curret": "Conector Tipo 1",
		"power_charger": "AC"
	},
	{
		"name": "Mall Sport - 1",
		"region": "Metropolitana",
		"municipality": "Las Condes",
		"address": "Avenida Las Condes 13451",
		"latitude": "-3.337.041",
		"longitude": "-7.050.717",
		"power_station": "6",
		"connector": "6",
		"curret": "Conector Tipo 2",
		"power_charger": "AC"
	},
	{
		"name": "Movicenter Huechuraba - 1",
		"region": "Metropolitana",
		"municipality": "Huechuraba",
		"address": "Americo Vespucio Norte 1155",
		"latitude": "-3.337.014",
		"longitude": "-706.626",
		"power_station": "14",
		"connector": "Conector Tipo 2",
		"curret": "AC",
		"power_charger": "7"
	},
	{
		"name": "Movicenter Huechuraba - 1",
		"region": "Metropolitana",
		"municipality": "Huechuraba",
		"address": "Americo Vespucio Norte 1155",
		"latitude": "-3.337.014",
		"longitude": "-706.626",
		"power_station": "14",
		"connector": "Conector Tipo 1",
		"curret": "AC",
		"power_charger": "7"
	},
	{
		"name": "Alejandro Fleming Frente N° 7501 - 1",
		"region": "Metropolitana",
		"municipality": "Las Condes",
		"address": "Alejandro Fleming N/A",
		"latitude": "-3.342.545",
		"longitude": "-7.055.409",
		"power_station": "48",
		"connector": "Conector Tipo 2",
		"curret": "AC",
		"power_charger": "22"
	},
	{
		"name": "Alejandro Fleming Frente N° 7501 - 1",
		"region": "Metropolitana",
		"municipality": "Las Condes",
		"address": "Alejandro Fleming N/A",
		"latitude": "-3.342.545",
		"longitude": "-7.055.409",
		"power_station": "48",
		"connector": "Conector Tipo 2",
		"curret": "AC",
		"power_charger": "22"
	},
	{
		"name": "Entrada Jumbo - 1",
		"region": "Metropolitana",
		"municipality": "Las Condes",
		"address": "Juan de Austria N/A",
		"latitude": "-3.343.089",
		"longitude": "-7.057.912",
		"power_station": "48",
		"connector": "Conector Tipo 2",
		"curret": "AC",
		"power_charger": "22"
	},
	{
		"name": "Entrada Jumbo - 1",
		"region": "Metropolitana",
		"municipality": "Las Condes",
		"address": "Juan de Austria N/A",
		"latitude": "-3.343.089",
		"longitude": "-7.057.912",
		"power_station": "48",
		"connector": "Conector Tipo 2",
		"curret": "AC",
		"power_charger": "22"
	},
	{
		"name": "Estadio Francés - 1",
		"region": "Metropolitana",
		"municipality": "Las Condes",
		"address": "Presidente Errazuriz N/A",
		"latitude": "-3.342.129",
		"longitude": "-705.953",
		"power_station": "48",
		"connector": "Conector Tipo 2",
		"curret": "AC",
		"power_charger": "22"
	},
	{
		"name": "Estadio Francés - 1",
		"region": "Metropolitana",
		"municipality": "Las Condes",
		"address": "Presidente Errazuriz N/A",
		"latitude": "-3.342.129",
		"longitude": "-705.953",
		"power_station": "48",
		"connector": "Conector Tipo 2",
		"curret": "AC",
		"power_charger": "22"
	},
	{
		"name": "Inversión Vida Parque SA - 1",
		"region": "Metropolitana",
		"municipality": "Las Condes",
		"address": "Av. Plaza N/A",
		"latitude": "-333.927",
		"longitude": "-7.050.372",
		"power_station": "48",
		"connector": "Conector Tipo 2",
		"curret": "AC",
		"power_charger": "22"
	},
	{
		"name": "Inversión Vida Parque SA - 1",
		"region": "Metropolitana",
		"municipality": "Las Condes",
		"address": "Av. Plaza N/A",
		"latitude": "-333.927",
		"longitude": "-7.050.372",
		"power_station": "48",
		"connector": "Conector Tipo 2",
		"curret": "AC",
		"power_charger": "22"
	},
	{
		"name": "Presidente Errazuriz frente al Nº 3753 - 1",
		"region": "Metropolitana",
		"municipality": "Las Condes",
		"address": "Presidente Errazuriz N/A",
		"latitude": "-3.342.027",
		"longitude": "-7.058.846",
		"power_station": "48",
		"connector": "Conector Tipo 2",
		"curret": "AC",
		"power_charger": "44"
	},
	{
		"name": "Presidente Errazuriz frente al Nº 3753 - 1",
		"region": "Metropolitana",
		"municipality": "Las Condes",
		"address": "Presidente Errazuriz N/A",
		"latitude": "-3.342.027",
		"longitude": "-7.058.846",
		"power_station": "48",
		"connector": "Conector Tipo 2",
		"curret": "AC",
		"power_charger": "44"
	},
	{
		"name": "CARGADORES ELECTRICOS MALL PLAZA COPIAPO - 1",
		"region": "Atacama",
		"municipality": "Copiapó",
		"address": "MAIPU 109",
		"latitude": "-2.736.866",
		"longitude": "-7.033.909",
		"power_station": "7",
		"connector": "4",
		"curret": "Conector Tipo 2",
		"power_charger": "AC"
	},
	{
		"name": "CARGADORES ELECTRICOS MALL PLAZA COPIAPO - 2",
		"region": "Atacama",
		"municipality": "Copiapó",
		"address": "MAIPU 109",
		"latitude": "-2.736.866",
		"longitude": "-7.033.909",
		"power_station": "7",
		"connector": "4",
		"curret": "Conector Tipo 2",
		"power_charger": "AC"
	},
	{
		"name": "ELECTROLINERA MALL PLAZA ARICA - 1",
		"region": "Arica y Parinacota",
		"municipality": "Arica",
		"address": "Avenida Diego Portales 640",
		"latitude": "-1.846.971",
		"longitude": "-7.030.857",
		"power_station": "7",
		"connector": "4",
		"curret": "Conector Tipo 2",
		"power_charger": "AC"
	},
	{
		"name": "ELECTROLINERA MALL PLAZA ARICA - 2",
		"region": "Arica y Parinacota",
		"municipality": "Arica",
		"address": "Avenida Diego Portales 640",
		"latitude": "-1.846.971",
		"longitude": "-7.030.857",
		"power_station": "7",
		"connector": "4",
		"curret": "Conector Tipo 2",
		"power_charger": "AC"
	},
	{
		"name": "ESTACIÓN DE CARGA PARA VEHÍCULOS PLAZA ALAMEDA - 1",
		"region": "Metropolitana",
		"municipality": "Estación Central",
		"address": "Avenida Libertador Bernardo O´Higgins 3470",
		"latitude": "-3.345.273",
		"longitude": "-7.068.224",
		"power_station": "7",
		"connector": "4",
		"curret": "Conector Tipo 2",
		"power_charger": "AC"
	},
	{
		"name": "ESTACIÓN DE CARGA PARA VEHÍCULOS PLAZA ALAMEDA - 2",
		"region": "Metropolitana",
		"municipality": "Estación Central",
		"address": "Avenida Libertador Bernardo O´Higgins 3470",
		"latitude": "-3.345.273",
		"longitude": "-7.068.224",
		"power_station": "7",
		"connector": "4",
		"curret": "Conector Tipo 2",
		"power_charger": "AC"
	},
	{
		"name": "PUNTO DE CARGA DOBLE EV-BOX MALL PLAZA SUR - 1",
		"region": "Metropolitana",
		"municipality": "San Bernardo",
		"address": "AV. PRESIDENTE JORGE ALESSANDRI 20040",
		"latitude": "-336.317",
		"longitude": "-707.104",
		"power_station": "7",
		"connector": "4",
		"curret": "Conector Tipo 2",
		"power_charger": "AC"
	},
	{
		"name": "PUNTO DE CARGA DOBLE EV-BOX MALL PLAZA SUR - 2",
		"region": "Metropolitana",
		"municipality": "San Bernardo",
		"address": "AV. PRESIDENTE JORGE ALESSANDRI 20040",
		"latitude": "-336.317",
		"longitude": "-707.104",
		"power_station": "7",
		"connector": "4",
		"curret": "Conector Tipo 2",
		"power_charger": "AC"
	},
	{
		"name": "PUNTO DE RECARGA DOBLE EV-BOX - 1",
		"region": "Metropolitana",
		"municipality": "Huechuraba",
		"address": "avenida Americo Vespucio 1737",
		"latitude": "-3.336.669",
		"longitude": "-706.788",
		"power_station": "7",
		"connector": "4",
		"curret": "Conector Tipo 2",
		"power_charger": "AC"
	},
	{
		"name": "PUNTO DE RECARGA DOBLE EV-BOX - 2",
		"region": "Metropolitana",
		"municipality": "Huechuraba",
		"address": "avenida Americo Vespucio 1737",
		"latitude": "-3.336.669",
		"longitude": "-706.788",
		"power_station": "7",
		"connector": "4",
		"curret": "Conector Tipo 2",
		"power_charger": "AC"
	},
	{
		"name": "PUNTO DE RECARGA DOBLE EV-BOX - 3",
		"region": "Metropolitana",
		"municipality": "Huechuraba",
		"address": "avenida Americo Vespucio 1737",
		"latitude": "-3.336.669",
		"longitude": "-706.788",
		"power_station": "7",
		"connector": "4",
		"curret": "Conector Tipo 2",
		"power_charger": "AC"
	},
	{
		"name": "PUNTO DE RECARGA DOBLE EV-BOX - 4",
		"region": "Metropolitana",
		"municipality": "Huechuraba",
		"address": "avenida Americo Vespucio 1737",
		"latitude": "-3.336.669",
		"longitude": "-706.788",
		"power_station": "7",
		"connector": "4",
		"curret": "Conector Tipo 2",
		"power_charger": "AC"
	},
	{
		"name": "Parque Arauco",
		"region": " Presidente Kennedy Nº 5413 - 1",
		"municipality": "Metropolitana",
		"address": "Las Condes",
		"latitude": "Presidente Kennedy 5413",
		"longitude": "-334.018",
		"power_station": "-7.057.972",
		"connector": "14",
		"curret": "Conector Tipo 2",
		"power_charger": "AC"
	},
	{
		"name": "Parque Arauco",
		"region": " Presidente Kennedy Nº 5413 - 1",
		"municipality": "Metropolitana",
		"address": "Las Condes",
		"latitude": "Presidente Kennedy 5413",
		"longitude": "-334.018",
		"power_station": "-7.057.972",
		"connector": "14",
		"curret": "Conector Tipo 2",
		"power_charger": "AC"
	},
	{
		"name": "Luz Del Norte - 1",
		"region": "Atacama",
		"municipality": "Copiapó",
		"address": "Ruta C-17 46",
		"latitude": "-2.701.836",
		"longitude": "-6.990.014",
		"power_station": "44",
		"connector": "Conector Tipo 2",
		"curret": "AC",
		"power_charger": "22"
	},
	{
		"name": "Luz Del Norte - 1",
		"region": "Atacama",
		"municipality": "Copiapó",
		"address": "Ruta C-17 46",
		"latitude": "-2.701.836",
		"longitude": "-6.990.014",
		"power_station": "44",
		"connector": "Conector Tipo 2",
		"curret": "AC",
		"power_charger": "22"
	},
	{
		"name": "Parque Metropolitano- Entrada Pedro de Valdivia - 1",
		"region": "Metropolitana",
		"municipality": "Providencia",
		"address": "Pedro de Valdivia Norte 699",
		"latitude": "-3.341.533",
		"longitude": "-7.061.739",
		"power_station": "44",
		"connector": "Conector Tipo 2",
		"curret": "AC",
		"power_charger": "22"
	},
	{
		"name": "Parque Metropolitano- Entrada Pedro de Valdivia - 1",
		"region": "Metropolitana",
		"municipality": "Providencia",
		"address": "Pedro de Valdivia Norte 699",
		"latitude": "-3.341.533",
		"longitude": "-7.061.739",
		"power_station": "44",
		"connector": "Conector Tipo 2",
		"curret": "AC",
		"power_charger": "22"
	},
	{
		"name": "Parque Metropolitano_Jardín Mapulemo - 1",
		"region": "Metropolitana",
		"municipality": "Recoleta",
		"address": "Pio Nono 450 p2",
		"latitude": "-3.341.383",
		"longitude": "-706.208",
		"power_station": "44",
		"connector": "Conector Tipo 2",
		"curret": "AC",
		"power_charger": "22"
	},
	{
		"name": "Parque Metropolitano_Jardín Mapulemo - 1",
		"region": "Metropolitana",
		"municipality": "Recoleta",
		"address": "Pio Nono 450 p2",
		"latitude": "-3.341.383",
		"longitude": "-706.208",
		"power_station": "44",
		"connector": "Conector Tipo 2",
		"curret": "AC",
		"power_charger": "22"
	},
	{
		"name": "Grupo Patio Foster - 1",
		"region": "Metropolitana",
		"municipality": "Las Condes",
		"address": "Enrique Foster 21",
		"latitude": "-3.341.556",
		"longitude": "-7.059.412",
		"power_station": "7",
		"connector": "Conector Tipo 1",
		"curret": "AC",
		"power_charger": "7"
	},
	{
		"name": "Grupo Patio Foster - 2",
		"region": "Metropolitana",
		"municipality": "Las Condes",
		"address": "Enrique Foster 21",
		"latitude": "-3.341.556",
		"longitude": "-7.059.412",
		"power_station": "7",
		"connector": "Conector Tipo 2",
		"curret": "AC",
		"power_charger": "7"
	},
	{
		"name": "Hotel Patagonico - 1",
		"region": "Maule",
		"municipality": "Talca",
		"address": "Dos Norte 3835",
		"latitude": "-3.543.508",
		"longitude": "-7.161.566",
		"power_station": "44",
		"connector": "Conector Tipo 2",
		"curret": "AC",
		"power_charger": "22"
	},
	{
		"name": "Hotel Patagonico - 1",
		"region": "Maule",
		"municipality": "Talca",
		"address": "Dos Norte 3835",
		"latitude": "-3.543.508",
		"longitude": "-7.161.566",
		"power_station": "44",
		"connector": "Conector Tipo 2",
		"curret": "AC",
		"power_charger": "22"
	},
	{
		"name": "PUNTO DE RECARGA DOBLE EV-BOX_1 MPAN - 1",
		"region": "Antofagasta",
		"municipality": "Antofagasta",
		"address": "Av Balmaceda 2355",
		"latitude": "-2.364.621",
		"longitude": "-7.040.109",
		"power_station": "7",
		"connector": "4",
		"curret": "Conector Tipo 2",
		"power_charger": "AC"
	},
	{
		"name": "PUNTO DE RECARGA DOBLE EV-BOX_1 MPAN - 2",
		"region": "Antofagasta",
		"municipality": "Antofagasta",
		"address": "Av Balmaceda 2355",
		"latitude": "-2.364.621",
		"longitude": "-7.040.109",
		"power_station": "7",
		"connector": "4",
		"curret": "Conector Tipo 2",
		"power_charger": "AC"
	},
	{
		"name": "SAVE MALL PLAZA TOBALABA - 1",
		"region": "Metropolitana",
		"municipality": "Puente Alto",
		"address": "AVENIDA CAMILO HENRIQUEZ 3692",
		"latitude": "-3.356.926",
		"longitude": "-7.055.583",
		"power_station": "7",
		"connector": "4",
		"curret": "Conector Tipo 2",
		"power_charger": "AC"
	},
	{
		"name": "SAVE MALL PLAZA TOBALABA - 2",
		"region": "Metropolitana",
		"municipality": "Puente Alto",
		"address": "AVENIDA CAMILO HENRIQUEZ 3692",
		"latitude": "-3.356.926",
		"longitude": "-7.055.583",
		"power_station": "7",
		"connector": "4",
		"curret": "Conector Tipo 2",
		"power_charger": "AC"
	},
	{
		"name": "Electrolinera Mall Plaza Los Angeles - 1",
		"region": "Biobío",
		"municipality": "Los Ángeles",
		"address": "Valdivia 440",
		"latitude": "-3.746.803",
		"longitude": "-7.235.279",
		"power_station": "7",
		"connector": "4",
		"curret": "Conector Tipo 2",
		"power_charger": "AC"
	},
	{
		"name": "Electrolinera Mall Plaza Los Angeles - 2",
		"region": "Biobío",
		"municipality": "Los Ángeles",
		"address": "Valdivia 440",
		"latitude": "-3.746.803",
		"longitude": "-7.235.279",
		"power_station": "7",
		"connector": "4",
		"curret": "Conector Tipo 2",
		"power_charger": "AC"
	},
	{
		"name": "Electrolineras Mall Trebol - 1",
		"region": "Biobío",
		"municipality": "Concepción",
		"address": "Jorge Alessandri 3177",
		"latitude": "-3.679.204",
		"longitude": "-730.656",
		"power_station": "7",
		"connector": "4",
		"curret": "Conector Tipo 2",
		"power_charger": "AC"
	},
	{
		"name": "Electrolineras Mall Trebol - 2",
		"region": "Biobío",
		"municipality": "Concepción",
		"address": "Jorge Alessandri 3177",
		"latitude": "-3.679.204",
		"longitude": "-730.656",
		"power_station": "7",
		"connector": "4",
		"curret": "Conector Tipo 2",
		"power_charger": "AC"
	},
	{
		"name": "Electrolineras Mall Trebol - 3",
		"region": "Biobío",
		"municipality": "Concepción",
		"address": "Jorge Alessandri 3177",
		"latitude": "-3.679.204",
		"longitude": "-730.656",
		"power_station": "7",
		"connector": "4",
		"curret": "Conector Tipo 2",
		"power_charger": "AC"
	},
	{
		"name": "Electrolineras Mall Trebol - 4",
		"region": "Biobío",
		"municipality": "Concepción",
		"address": "Jorge Alessandri 3177",
		"latitude": "-3.679.204",
		"longitude": "-730.656",
		"power_station": "7",
		"connector": "4",
		"curret": "Conector Tipo 2",
		"power_charger": "AC"
	},
	{
		"name": "Cargador Intervial Angostura - 1",
		"region": "Metropolitana",
		"municipality": "Paine",
		"address": "Panamericana sur 1391",
		"latitude": "-3.390.666",
		"longitude": "-7.073.309",
		"power_station": "55",
		"connector": "Conector Tipo 2",
		"curret": "AC",
		"power_charger": "43"
	},
	{
		"name": "Cargador Intervial Angostura - 1",
		"region": "Metropolitana",
		"municipality": "Paine",
		"address": "Panamericana sur 1391",
		"latitude": "-3.390.666",
		"longitude": "-7.073.309",
		"power_station": "55",
		"connector": "Combinado Tipo 2",
		"curret": "DC",
		"power_charger": "50"
	},
	{
		"name": "Cargador Intervial Angostura - 1",
		"region": "Metropolitana",
		"municipality": "Paine",
		"address": "Panamericana sur 1391",
		"latitude": "-3.390.666",
		"longitude": "-7.073.309",
		"power_station": "55",
		"connector": "CHAdeMO",
		"curret": "DC",
		"power_charger": "50"
	},
	{
		"name": "Parking Saba Guardia Vieja - 1",
		"region": "Metropolitana",
		"municipality": "Providencia",
		"address": "Avenida providencia 2099",
		"latitude": "-334.213",
		"longitude": "-7.060.905",
		"power_station": "7",
		"connector": "Conector Tipo 2",
		"curret": "AC",
		"power_charger": "7"
	},
	{
		"name": "Parking Saba Guardia Vieja - 2",
		"region": "Metropolitana",
		"municipality": "Providencia",
		"address": "Avenida providencia 2099",
		"latitude": "-334.213",
		"longitude": "-7.060.905",
		"power_station": "7",
		"connector": "Conector Tipo 2",
		"curret": "AC",
		"power_charger": "7"
	},
	{
		"name": "Parking Saba Guardia Vieja - 3",
		"region": "Metropolitana",
		"municipality": "Providencia",
		"address": "Avenida providencia 2099",
		"latitude": "-334.213",
		"longitude": "-7.060.905",
		"power_station": "7",
		"connector": "Conector Tipo 2",
		"curret": "AC",
		"power_charger": "7"
	},
	{
		"name": "Parking Saba Marchant Pereira - 1",
		"region": "Metropolitana",
		"municipality": "Providencia",
		"address": "Avenida providencia 1909",
		"latitude": "-3.342.508",
		"longitude": "-7.061.364",
		"power_station": "7",
		"connector": "Conector Tipo 2",
		"curret": "AC",
		"power_charger": "7"
	},
	{
		"name": "Parking Saba Marchant Pereira - 2",
		"region": "Metropolitana",
		"municipality": "Providencia",
		"address": "Avenida providencia 1909",
		"latitude": "-3.342.508",
		"longitude": "-7.061.364",
		"power_station": "7",
		"connector": "Conector Tipo 2",
		"curret": "AC",
		"power_charger": "7"
	},
	{
		"name": "Parking Saba Marchant Pereira - 3",
		"region": "Metropolitana",
		"municipality": "Providencia",
		"address": "Avenida providencia 1909",
		"latitude": "-3.342.508",
		"longitude": "-7.061.364",
		"power_station": "7",
		"connector": "Conector Tipo 2",
		"curret": "AC",
		"power_charger": "7"
	},
	{
		"name": "Parking Saba Pedro de Valdivia - 1",
		"region": "Metropolitana",
		"municipality": "Providencia",
		"address": "Avenida providencia 2001",
		"latitude": "-3.342.361",
		"longitude": "-7.061.207",
		"power_station": "7",
		"connector": "Conector Tipo 2",
		"curret": "AC",
		"power_charger": "7"
	},
	{
		"name": "Parking Saba Pedro de Valdivia - 2",
		"region": "Metropolitana",
		"municipality": "Providencia",
		"address": "Avenida providencia 2001",
		"latitude": "-3.342.361",
		"longitude": "-7.061.207",
		"power_station": "7",
		"connector": "Conector Tipo 2",
		"curret": "AC",
		"power_charger": "7"
	},
	{
		"name": "Parking Saba Pedro de Valdivia - 3",
		"region": "Metropolitana",
		"municipality": "Providencia",
		"address": "Avenida providencia 2001",
		"latitude": "-3.342.361",
		"longitude": "-7.061.207",
		"power_station": "7",
		"connector": "Conector Tipo 2",
		"curret": "AC",
		"power_charger": "7"
	},
	{
		"name": "Parking Saba Ricardo Lyon - 1",
		"region": "Metropolitana",
		"municipality": "Providencia",
		"address": "avenida providencia 2203",
		"latitude": "-3.342.187",
		"longitude": "-706.098",
		"power_station": "7",
		"connector": "Conector Tipo 2",
		"curret": "AC",
		"power_charger": "7"
	},
	{
		"name": "Parking Saba Ricardo Lyon - 2",
		"region": "Metropolitana",
		"municipality": "Providencia",
		"address": "avenida providencia 2203",
		"latitude": "-3.342.187",
		"longitude": "-706.098",
		"power_station": "7",
		"connector": "Conector Tipo 2",
		"curret": "AC",
		"power_charger": "7"
	},
	{
		"name": "Parking Saba Ricardo Lyon - 3",
		"region": "Metropolitana",
		"municipality": "Providencia",
		"address": "avenida providencia 2203",
		"latitude": "-3.342.187",
		"longitude": "-706.098",
		"power_station": "7",
		"connector": "Conector Tipo 2",
		"curret": "AC",
		"power_charger": "7"
	},
	{
		"name": "Saba Santa Lucia - 1",
		"region": "Metropolitana",
		"municipality": "Santiago",
		"address": "victoria subercaseaux 400",
		"latitude": "-3.343.821",
		"longitude": "-7.064.277",
		"power_station": "7",
		"connector": "Conector Tipo 2",
		"curret": "AC",
		"power_charger": "7"
	},
	{
		"name": "Saba Santa Lucia - 2",
		"region": "Metropolitana",
		"municipality": "Santiago",
		"address": "victoria subercaseaux 400",
		"latitude": "-3.343.821",
		"longitude": "-7.064.277",
		"power_station": "7",
		"connector": "Conector Tipo 2",
		"curret": "AC",
		"power_charger": "7"
	},
	{
		"name": "Saba Santa Lucia - 3",
		"region": "Metropolitana",
		"municipality": "Santiago",
		"address": "victoria subercaseaux 400",
		"latitude": "-3.343.821",
		"longitude": "-7.064.277",
		"power_station": "7",
		"connector": "Conector Tipo 2",
		"curret": "AC",
		"power_charger": "7"
	},
	{
		"name": "Saba Santa Rosa - 1",
		"region": "Metropolitana",
		"municipality": "Santiago",
		"address": "Santa Rosa 76",
		"latitude": "-3.344.476",
		"longitude": "-7.064.557",
		"power_station": "7",
		"connector": "Conector Tipo 2",
		"curret": "AC",
		"power_charger": "7"
	},
	{
		"name": "Saba Santa Rosa - 2",
		"region": "Metropolitana",
		"municipality": "Santiago",
		"address": "Santa Rosa 76",
		"latitude": "-3.344.476",
		"longitude": "-7.064.557",
		"power_station": "7",
		"connector": "Conector Tipo 2",
		"curret": "AC",
		"power_charger": "7"
	},
	{
		"name": "Saba Santa Rosa - 3",
		"region": "Metropolitana",
		"municipality": "Santiago",
		"address": "Santa Rosa 76",
		"latitude": "-3.344.476",
		"longitude": "-7.064.557",
		"power_station": "7",
		"connector": "Conector Tipo 2",
		"curret": "AC",
		"power_charger": "7"
	},
	{
		"name": "Saba Plaza de Armas - 1",
		"region": "Metropolitana",
		"municipality": "Santiago",
		"address": "21 de mayo 576",
		"latitude": "-3.343.536",
		"longitude": "-7.064.991",
		"power_station": "7",
		"connector": "Conector Tipo 2",
		"curret": "AC",
		"power_charger": "7"
	},
	{
		"name": "Saba Plaza de Armas - 2",
		"region": "Metropolitana",
		"municipality": "Santiago",
		"address": "21 de mayo 576",
		"latitude": "-3.343.536",
		"longitude": "-7.064.991",
		"power_station": "7",
		"connector": "Conector Tipo 2",
		"curret": "AC",
		"power_charger": "7"
	},
	{
		"name": "Saba Plaza de Armas - 3",
		"region": "Metropolitana",
		"municipality": "Santiago",
		"address": "21 de mayo 576",
		"latitude": "-3.343.536",
		"longitude": "-7.064.991",
		"power_station": "7",
		"connector": "Conector Tipo 2",
		"curret": "AC",
		"power_charger": "7"
	},
	{
		"name": "CASTRO BNUP SAESA - 1",
		"region": "Los Lagos",
		"municipality": "Castro",
		"address": "Gamboa 0000",
		"latitude": "-4.248.181",
		"longitude": "-7.376.808",
		"power_station": "44",
		"connector": "Conector Tipo 2",
		"curret": "AC",
		"power_charger": "22"
	},
	{
		"name": "CASTRO BNUP SAESA - 1",
		"region": "Los Lagos",
		"municipality": "Castro",
		"address": "Gamboa 0000",
		"latitude": "-4.248.181",
		"longitude": "-7.376.808",
		"power_station": "44",
		"connector": "Conector Tipo 2",
		"curret": "AC",
		"power_charger": "22"
	},
	{
		"name": "Oficina Comercial Edelaysen",
		"region": "Aysén",
		"municipality": "Coyhaique",
		"address": "Francisco Bilbao 449",
		"latitude": "-455.729",
		"longitude": "-7.207.092",
		"power_station": "44",
		"connector": "Conector Tipo 2",
		"curret": "AC",
		"power_charger": "22"
	},
	{
		"name": "Oficina Comercial Edelaysen",
		"region": "Aysén",
		"municipality": "Coyhaique",
		"address": "Francisco Bilbao 449",
		"latitude": "-455.729",
		"longitude": "-7.207.092",
		"power_station": "44",
		"connector": "Conector Tipo 2",
		"curret": "AC",
		"power_charger": "22"
	},
	{
		"name": "Oficina Comercial SAESA Osorno",
		"region": "Los Lagos",
		"municipality": "Osorno",
		"address": "Eleuterio Ramírez 705",
		"latitude": "-4.057.306",
		"longitude": "-7.313.868",
		"power_station": "44",
		"connector": "Conector Tipo 2",
		"curret": "AC",
		"power_charger": "22"
	},
	{
		"name": "Oficina Comercial SAESA Osorno",
		"region": "Los Lagos",
		"municipality": "Osorno",
		"address": "Eleuterio Ramírez 705",
		"latitude": "-4.057.306",
		"longitude": "-7.313.868",
		"power_station": "44",
		"connector": "Conector Tipo 2",
		"curret": "AC",
		"power_charger": "22"
	},
	{
		"name": "Oficina Comercial SAESA Valdivia",
		"region": "Los Ríos",
		"municipality": "Valdivia",
		"address": "Yungay 646",
		"latitude": "-3.981.552",
		"longitude": "-732.483",
		"power_station": "44",
		"connector": "Conector Tipo 2",
		"curret": "AC",
		"power_charger": "22"
	},
	{
		"name": "Oficina Comercial SAESA Valdivia",
		"region": "Los Ríos",
		"municipality": "Valdivia",
		"address": "Yungay 646",
		"latitude": "-3.981.552",
		"longitude": "-732.483",
		"power_station": "44",
		"connector": "Conector Tipo 2",
		"curret": "AC",
		"power_charger": "22"
	},
	{
		"name": "Proyecto Ancud cargadores SAESA - 1",
		"region": "Los Lagos",
		"municipality": "Ancud",
		"address": "Libertad 370",
		"latitude": "-4.186.844",
		"longitude": "-7.382.918",
		"power_station": "44",
		"connector": "Conector Tipo 2",
		"curret": "AC",
		"power_charger": "22"
	},
	{
		"name": "Proyecto Ancud cargadores SAESA - 1",
		"region": "Los Lagos",
		"municipality": "Ancud",
		"address": "Libertad 370",
		"latitude": "-4.186.844",
		"longitude": "-7.382.918",
		"power_station": "44",
		"connector": "Conector Tipo 2",
		"curret": "AC",
		"power_charger": "22"
	},
	{
		"name": "Proyecto Aysen cargadores SAESA - 1",
		"region": "Aisén del General Carlos Ibáñez del Campo",
		"municipality": "Aysén",
		"address": "Bernardo O´Higgins 520",
		"latitude": "-4.540.607",
		"longitude": "-726.976",
		"power_station": "44",
		"connector": "Conector Tipo 2",
		"curret": "AC",
		"power_charger": "22"
	},
	{
		"name": "Proyecto Aysen cargadores SAESA - 1",
		"region": "Aisén del General Carlos Ibáñez del Campo",
		"municipality": "Aysén",
		"address": "Bernardo O´Higgins 520",
		"latitude": "-4.540.607",
		"longitude": "-726.976",
		"power_station": "44",
		"connector": "Conector Tipo 2",
		"curret": "AC",
		"power_charger": "22"
	},
	{
		"name": "Proyecto Loncoche cargadores SAESA - 1",
		"region": "La Araucanía",
		"municipality": "Loncoche",
		"address": "Ignacio Serrano 340",
		"latitude": "-3.937.022",
		"longitude": "-7.262.958",
		"power_station": "44",
		"connector": "Conector Tipo 2",
		"curret": "AC",
		"power_charger": "22"
	},
	{
		"name": "Proyecto Loncoche cargadores SAESA - 1",
		"region": "La Araucanía",
		"municipality": "Loncoche",
		"address": "Ignacio Serrano 340",
		"latitude": "-3.937.022",
		"longitude": "-7.262.958",
		"power_station": "44",
		"connector": "Conector Tipo 2",
		"curret": "AC",
		"power_charger": "22"
	},
	{
		"name": "Proyecto Paillaco cargadores SAESA - 1",
		"region": "De los Ríos",
		"municipality": "Paillaco",
		"address": "Arturo Prat 750",
		"latitude": "-4.007.117",
		"longitude": "-7.287.336",
		"power_station": "44",
		"connector": "Conector Tipo 2",
		"curret": "AC",
		"power_charger": "22"
	},
	{
		"name": "Proyecto Paillaco cargadores SAESA - 1",
		"region": "De los Ríos",
		"municipality": "Paillaco",
		"address": "Arturo Prat 750",
		"latitude": "-4.007.117",
		"longitude": "-7.287.336",
		"power_station": "44",
		"connector": "Conector Tipo 2",
		"curret": "AC",
		"power_charger": "22"
	},
	{
		"name": "Proyecto Panguipulli cargadores SAESA - 1",
		"region": "De los Ríos",
		"municipality": "Panguipulli",
		"address": "Bernardo O´Higgins 780",
		"latitude": "-3.964.191",
		"longitude": "-7.233.211",
		"power_station": "44",
		"connector": "Conector Tipo 2",
		"curret": "AC",
		"power_charger": "22"
	},
	{
		"name": "Proyecto Panguipulli cargadores SAESA - 1",
		"region": "De los Ríos",
		"municipality": "Panguipulli",
		"address": "Bernardo O´Higgins 780",
		"latitude": "-3.964.191",
		"longitude": "-7.233.211",
		"power_station": "44",
		"connector": "Conector Tipo 2",
		"curret": "AC",
		"power_charger": "22"
	},
	{
		"name": "PUYEHUE BNUP SAESA - 1",
		"region": "Los Lagos",
		"municipality": "Puyehue",
		"address": "Entre Lagos 0000",
		"latitude": "-4.068.346",
		"longitude": "-7.260.423",
		"power_station": "44",
		"connector": "Conector Tipo 2",
		"curret": "AC",
		"power_charger": "22"
	},
	{
		"name": "PUYEHUE BNUP SAESA - 1",
		"region": "Los Lagos",
		"municipality": "Puyehue",
		"address": "Entre Lagos 0000",
		"latitude": "-4.068.346",
		"longitude": "-7.260.423",
		"power_station": "44",
		"connector": "Conector Tipo 2",
		"curret": "AC",
		"power_charger": "22"
	},
	{
		"name": "SAESA Puerto Varas 1 - 1",
		"region": "Los Lagos",
		"municipality": "Puerto Varas",
		"address": "Del Salvador 219",
		"latitude": "-4.131.819",
		"longitude": "-7.298.258",
		"power_station": "44",
		"connector": "Conector Tipo 2",
		"curret": "AC",
		"power_charger": "22"
	},
	{
		"name": "SAESA Puerto Varas 1 - 1",
		"region": "Los Lagos",
		"municipality": "Puerto Varas",
		"address": "Del Salvador 219",
		"latitude": "-4.131.819",
		"longitude": "-7.298.258",
		"power_station": "44",
		"connector": "Conector Tipo 2",
		"curret": "AC",
		"power_charger": "22"
	},
	{
		"name": "Autoplanet Las Condes - 1",
		"region": "Metropolitana",
		"municipality": "Las Condes",
		"address": "Avenida Las Condes 10462",
		"latitude": "-3.338.263",
		"longitude": "-705.334",
		"power_station": "7",
		"connector": "4",
		"curret": "Conector Tipo 2",
		"power_charger": "AC"
	},
	{
		"name": "Autoplanet Las Condes - 2",
		"region": "Metropolitana",
		"municipality": "Las Condes",
		"address": "Avenida Las Condes 10462",
		"latitude": "-3.338.263",
		"longitude": "-705.334",
		"power_station": "7",
		"connector": "4",
		"curret": "Conector Tipo 2",
		"power_charger": "AC"
	},
	{
		"name": "Autoplanet Lo Barnechea - 1",
		"region": "Metropolitana",
		"municipality": "Lo Barnechea",
		"address": "avenida raúl labbé 12931",
		"latitude": "-3.336.654",
		"longitude": "-7.051.665",
		"power_station": "7",
		"connector": "4",
		"curret": "Conector Tipo 2",
		"power_charger": "AC"
	},
	{
		"name": "Autoplanet Lo Barnechea 2do - 1",
		"region": "Metropolitana",
		"municipality": "Lo Barnechea",
		"address": "avenida raúl labbé 12931",
		"latitude": "-3.336.387",
		"longitude": "-7.051.268",
		"power_station": "7",
		"connector": "4",
		"curret": "Conector Tipo 2",
		"power_charger": "AC"
	},
	{
		"name": "Enel X - Autoplanet Concepcion - 1",
		"region": "Biobío",
		"municipality": "Concepción",
		"address": "avenida paicavi 1796",
		"latitude": "-36",
		"longitude": "81",
		"power_station": "-7.305.032",
		"connector": "7",
		"curret": "4",
		"power_charger": "Conector Tipo 2"
	},
	{
		"name": "Enel X - Autoplanet Concepcion - 2",
		"region": "Biobío",
		"municipality": "Concepción",
		"address": "avenida paicavi 1796",
		"latitude": "-36",
		"longitude": "81",
		"power_station": "-7.305.032",
		"connector": "7",
		"curret": "4",
		"power_charger": "Conector Tipo 2"
	},
	{
		"name": "Enel X - Autoplanet Los Andes - 1",
		"region": "Valparaíso",
		"municipality": "Los Andes",
		"address": "avenida santa teresa 1279",
		"latitude": "-328.397",
		"longitude": "-7.060.871",
		"power_station": "7",
		"connector": "4",
		"curret": "Conector Tipo 2",
		"power_charger": "AC"
	},
	{
		"name": "Enel X - Autoplanet Los Andes - 2",
		"region": "Valparaíso",
		"municipality": "Los Andes",
		"address": "avenida santa teresa 1279",
		"latitude": "-328.397",
		"longitude": "-7.060.871",
		"power_station": "7",
		"connector": "4",
		"curret": "Conector Tipo 2",
		"power_charger": "AC"
	},
	{
		"name": "Enel X- Autoplanet Maipu - 1",
		"region": "Metropolitana",
		"municipality": "Maipú",
		"address": "camino melipilla 17800",
		"latitude": "-3.354.954",
		"longitude": "-7.078.875",
		"power_station": "7",
		"connector": "4",
		"curret": "Conector Tipo 2",
		"power_charger": "AC"
	},
	{
		"name": "Enel X- Autoplanet Maipu - 2",
		"region": "Metropolitana",
		"municipality": "Maipú",
		"address": "camino melipilla 17800",
		"latitude": "-3.354.954",
		"longitude": "-7.078.875",
		"power_station": "7",
		"connector": "4",
		"curret": "Conector Tipo 2",
		"power_charger": "AC"
	},
	{
		"name": "Aeropuerto Concepcion - 1",
		"region": "Biobío",
		"municipality": "Talcahuano",
		"address": "Presidente Jorge Alessandri Rodriguez 5001",
		"latitude": "-3.677.725",
		"longitude": "-7.305.999",
		"power_station": "44",
		"connector": "Conector Tipo 2",
		"curret": "AC",
		"power_charger": "22"
	},
	{
		"name": "Aeropuerto Concepcion - 1",
		"region": "Biobío",
		"municipality": "Talcahuano",
		"address": "Presidente Jorge Alessandri Rodriguez 5001",
		"latitude": "-3.677.725",
		"longitude": "-7.305.999",
		"power_station": "44",
		"connector": "Conector Tipo 2",
		"curret": "AC",
		"power_charger": "22"
	},
	{
		"name": "Electrolinera-53 - 1",
		"region": "Metropolitana",
		"municipality": "Providencia",
		"address": "Avenida Francisco Bilbao 1439",
		"latitude": "-3.343.934",
		"longitude": "-7.061.451",
		"power_station": "7",
		"connector": "Conector Tipo 1",
		"curret": "AC",
		"power_charger": "7"
	},
	{
		"name": "Enel X - UFRO Temuco - 1",
		"region": "La Araucanía",
		"municipality": "Temuco",
		"address": "Uruguay 1720",
		"latitude": "-3.874.647",
		"longitude": "-7.261.764",
		"power_station": "44",
		"connector": "Conector Tipo 2",
		"curret": "AC",
		"power_charger": "22"
	},
	{
		"name": "Enel X - UFRO Temuco - 1",
		"region": "La Araucanía",
		"municipality": "Temuco",
		"address": "Uruguay 1720",
		"latitude": "-3.874.647",
		"longitude": "-7.261.764",
		"power_station": "44",
		"connector": "Conector Tipo 2",
		"curret": "AC",
		"power_charger": "22"
	},
	{
		"name": "Enel X - UFRO Temuco - 2",
		"region": "La Araucanía",
		"municipality": "Temuco",
		"address": "Uruguay 1720",
		"latitude": "-3.874.647",
		"longitude": "-7.261.764",
		"power_station": "44",
		"connector": "Conector Tipo 2",
		"curret": "AC",
		"power_charger": "22"
	},
	{
		"name": "Enel X - UFRO Temuco - 2",
		"region": "La Araucanía",
		"municipality": "Temuco",
		"address": "Uruguay 1720",
		"latitude": "-3.874.647",
		"longitude": "-7.261.764",
		"power_station": "44",
		"connector": "Conector Tipo 2",
		"curret": "AC",
		"power_charger": "22"
	},
	{
		"name": "UAI Viña Del Mar - 1",
		"region": "Valparaíso",
		"municipality": "Vina del Mar",
		"address": "Camino Padre Hurtado 750",
		"latitude": "-3.301.948",
		"longitude": "-7.153.027",
		"power_station": "14",
		"connector": "Conector Tipo 2",
		"curret": "AC",
		"power_charger": "7"
	},
	{
		"name": "UAI Viña Del Mar - 1",
		"region": "Valparaíso",
		"municipality": "Vina del Mar",
		"address": "Camino Padre Hurtado 750",
		"latitude": "-3.301.948",
		"longitude": "-7.153.027",
		"power_station": "14",
		"connector": "Conector Tipo 2",
		"curret": "AC",
		"power_charger": "7"
	},
	{
		"name": "Universidad Adolfo Ibañez - 1",
		"region": "Metropolitana",
		"municipality": "Penalolén",
		"address": "Diagonal Las Torres 2700",
		"latitude": "-3.349.013",
		"longitude": "-7.051.898",
		"power_station": "44",
		"connector": "Conector Tipo 2",
		"curret": "AC",
		"power_charger": "22"
	},
	{
		"name": "Universidad Adolfo Ibañez - 1",
		"region": "Metropolitana",
		"municipality": "Penalolén",
		"address": "Diagonal Las Torres 2700",
		"latitude": "-3.349.013",
		"longitude": "-7.051.898",
		"power_station": "44",
		"connector": "Conector Tipo 2",
		"curret": "AC",
		"power_charger": "22"
	},
	{
		"name": "Universidad de Los Andes - 1",
		"region": "Metropolitana",
		"municipality": "Las Condes",
		"address": "San Carlos de Apoquindo 2300",
		"latitude": "-3.340.417",
		"longitude": "-7.050.836",
		"power_station": "44",
		"connector": "Conector Tipo 2",
		"curret": "AC",
		"power_charger": "22"
	},
	{
		"name": "Universidad de Los Andes - 1",
		"region": "Metropolitana",
		"municipality": "Las Condes",
		"address": "San Carlos de Apoquindo 2300",
		"latitude": "-3.340.417",
		"longitude": "-7.050.836",
		"power_station": "44",
		"connector": "Conector Tipo 2",
		"curret": "AC",
		"power_charger": "22"
	},
	{
		"name": "SAVE LIDER IRARRAZAVAL - 1",
		"region": "Metropolitana",
		"municipality": "Nunoa",
		"address": "Avenida Irarrázaval 2928",
		"latitude": "-3.345.432",
		"longitude": "-7.060.044",
		"power_station": "24",
		"connector": "CHAdeMO",
		"curret": "DC",
		"power_charger": "24"
	},
	{
		"name": "SAVE LIDER IRARRAZAVAL - 1",
		"region": "Metropolitana",
		"municipality": "Nunoa",
		"address": "Avenida Irarrázaval 2928",
		"latitude": "-3.345.432",
		"longitude": "-7.060.044",
		"power_station": "24",
		"connector": "Combinado Tipo 2",
		"curret": "DC",
		"power_charger": "24"
	},
	{
		"name": "SAVE SUPERM.LIDER BUENAVENTURA WALMART-COLBUN - 1",
		"region": "Metropolitana",
		"municipality": "Vitacura",
		"address": "BUENAVENTURA 1770",
		"latitude": "-3.338.677",
		"longitude": "-7.056.821",
		"power_station": "24",
		"connector": "Combinado Tipo 2",
		"curret": "DC",
		"power_charger": "24"
	},
	{
		"name": "SAVE SUPERM.LIDER BUENAVENTURA WALMART-COLBUN - 1",
		"region": "Metropolitana",
		"municipality": "Vitacura",
		"address": "BUENAVENTURA 1770",
		"latitude": "-3.338.677",
		"longitude": "-7.056.821",
		"power_station": "24",
		"connector": "CHAdeMO",
		"curret": "DC",
		"power_charger": "24"
	},
	{
		"name": "SAVE SUPERM.LIDER PRINCIPE DE GALES WALMART-COLBUN - 1",
		"region": "Metropolitana",
		"municipality": "La Reina",
		"address": "Príncipe de Gales 9140",
		"latitude": "-3.344.127",
		"longitude": "-7.053.553",
		"power_station": "24",
		"connector": "Combinado Tipo 2",
		"curret": "DC",
		"power_charger": "24"
	},
	{
		"name": "SAVE SUPERM.LIDER PRINCIPE DE GALES WALMART-COLBUN - 1",
		"region": "Metropolitana",
		"municipality": "La Reina",
		"address": "Príncipe de Gales 9140",
		"latitude": "-3.344.127",
		"longitude": "-7.053.553",
		"power_station": "24",
		"connector": "CHAdeMO",
		"curret": "DC",
		"power_charger": "24"
	},
	{
		"name": "SAVE supermercado Lider Pie Andino - 1",
		"region": "Metropolitana",
		"municipality": "Lo Barnechea",
		"address": "paseo pie andino 5885",
		"latitude": "-3.332.395",
		"longitude": "-7.053.919",
		"power_station": "22",
		"connector": "Combinado Tipo 2",
		"curret": "DC",
		"power_charger": "22"
	},
	{
		"name": "SAVE supermercado Lider Pie Andino - 1",
		"region": "Metropolitana",
		"municipality": "Lo Barnechea",
		"address": "paseo pie andino 5885",
		"latitude": "-3.332.395",
		"longitude": "-7.053.919",
		"power_station": "22",
		"connector": "CHAdeMO",
		"curret": "DC",
		"power_charger": "22"
	}
]